"osm_id","osm_type","osm_url","lat","lon","name","name:en","name:gv","place","wikidata"
"10733875498","node","https://osm.org/node/10733875498","54.180224","-4.475566","Abbeyfields","","","locality",""
"475394200","node","https://osm.org/node/475394200","54.321057","-4.45807","Abbeyhill","","","farm",""
"475394674","node","https://osm.org/node/475394674","54.190796","-4.502662","Abbeylands","","","locality",""
"283518171","node","https://osm.org/node/283518171","54.246023","-4.40954","Agneash","","","hamlet","Q88775720"
"475392821","node","https://osm.org/node/475392821","54.2052","-4.51646","Algare Farm","","","farm",""
"475394189","node","https://osm.org/node/475394189","54.31949","-4.475538","Allandale","","","farm",""
"8398345476","node","https://osm.org/node/8398345476","54.109004","-4.760639","Amulty","","","locality",""
"83352983","way","https://osm.org/way/83352983","54.36873742128554","-4.443818620243409","Andreas","Andreas","Andreas","village","Q2484746"
"5712582248","node","https://osm.org/node/5712582248","54.367244","-4.444461","Andreas","Andreas","Andreas","village","Q2484746"
"475393459","node","https://osm.org/node/475393459","54.183837","-4.616639","Archallagan Park","","","locality",""
"475392817","node","https://osm.org/node/475392817","54.338461","-4.481474","Archdeacons Close","","","farm",""
"10740179615","node","https://osm.org/node/10740179615","54.217464","-4.52089","Ard Whallan","","","locality",""
"475393703","node","https://osm.org/node/475393703","54.214298","-4.498501","Arderry","","","locality",""
"475392935","node","https://osm.org/node/475392935","54.344488","-4.41861","Ardonan","","","farm",""
"8614550424","node","https://osm.org/node/8614550424","54.276077","-4.368203","Ards","","","locality",""
"475393205","node","https://osm.org/node/475393205","54.101086","-4.598122","Arragon Moar","","Arragon Moar","locality",""
"475393811","node","https://osm.org/node/475393811","54.097907","-4.599856","Arragon Veg","","","farm",""
"475393891","node","https://osm.org/node/475393891","54.174726","-4.686292","Arrysey","","","farm",""
"475392995","node","https://osm.org/node/475392995","54.239682","-4.383277","Arvioghen","","","farm",""
"475394418","node","https://osm.org/node/475394418","54.336241","-4.462966","Ashcroft Farm","","","farm",""
"475395055","node","https://osm.org/node/475395055","54.152322","-4.540734","Ashen","","","farm",""
"2494376528","node","https://osm.org/node/2494376528","54.324316","-4.40085","Auldyn Meadow","","","locality",""
"475394680","node","https://osm.org/node/475394680","54.341946","-4.412487","Aust Farm","","","farm",""
"10141570917","node","https://osm.org/node/10141570917","54.064398","-4.614164","Bailie Gullet","","","locality",""
"475392948","node","https://osm.org/node/475392948","54.23103","-4.429212","Baldhoon","","","locality",""
"475394412","node","https://osm.org/node/475394412","54.203441","-4.407758","Baldrine","","","village",""
"475392946","node","https://osm.org/node/475392946","54.205674","-4.416751","Baldrine Farm","","","farm",""
"475393081","node","https://osm.org/node/475393081","54.328791","-4.412052","Baldromma","","","farm",""
"475394641","node","https://osm.org/node/475394641","54.190773","-4.419261","Baldromma","","","farm",""
"475393154","node","https://osm.org/node/475393154","54.183404","-4.423725","Baldromma Christian","","","farm",""
"475393508","node","https://osm.org/node/475393508","54.295785","-4.322159","Baldromma Mill","","","farm",""
"283507566","node","https://osm.org/node/283507566","54.200193","-4.525442","Baldwin","","","hamlet",""
"475393815","node","https://osm.org/node/475393815","54.235678","-4.415599","Baljean Farm","","","farm",""
"475393991","node","https://osm.org/node/475393991","54.388224","-4.426494","Ballabane","","","farm",""
"283519563","node","https://osm.org/node/283519563","54.100454","-4.679469","Ballabeg","Ballabeg","Balley Beg","hamlet","Q267918"
"475392889","node","https://osm.org/node/475392889","54.21234","-4.408038","Ballabeg","","","locality","Q4851305"
"475394579","node","https://osm.org/node/475394579","54.39186","-4.39808","Ballabeg","","","farm",""
"475395195","node","https://osm.org/node/475395195","54.354351","-4.457938","Ballabeg","","","farm",""
"8567404037","node","https://osm.org/node/8567404037","54.179227","-4.63807","Ballabenna","","","locality",""
"475394138","node","https://osm.org/node/475394138","54.293554","-4.361093","Ballaberna","","","farm",""
"475392805","node","https://osm.org/node/475392805","54.391649","-4.432539","Ballaberragh","","","farm",""
"10291690067","node","https://osm.org/node/10291690067","54.087932","-4.731669","Ballabethlehem","","","farm",""
"882121510","way","https://osm.org/way/882121510","54.099574266456685","-4.694332269010909","Ballablack","","","farm",""
"475393709","node","https://osm.org/node/475393709","54.246885","-4.630161","Ballabooie","","","farm",""
"475393838","node","https://osm.org/node/475393838","54.203773","-4.668787","Ballabrooie","","","farm",""
"475394377","node","https://osm.org/node/475394377","54.154542","-4.545605","Ballabunt","","","farm",""
"112621809","way","https://osm.org/way/112621809","54.34480426786881","-4.530167574935628","Ballacain","","","farm",""
"475394742","node","https://osm.org/node/475394742","54.166072","-4.728958","Ballacain","","","farm",""
"475393072","node","https://osm.org/node/475393072","54.183414","-4.528619","Ballacain Cottage","","","farm",""
"475393824","node","https://osm.org/node/475393824","54.319666","-4.553551","Ballacain Farm","","","farm",""
"475393876","node","https://osm.org/node/475393876","54.18695","-4.457506","Ballacain Farm","","","farm",""
"475392884","node","https://osm.org/node/475392884","54.339652","-4.534004","Ballacaine Cottages","","","farm",""
"475395211","node","https://osm.org/node/475395211","54.313767","-4.494719","Ballacaley","","","farm",""
"475393192","node","https://osm.org/node/475393192","54.169432","-4.729631","Ballacallin","","","farm",""
"475394204","node","https://osm.org/node/475394204","54.157233","-4.587821","Ballacallin Beg","","","farm",""
"832386637","way","https://osm.org/way/832386637","54.1952650884636","-4.698411096164655","Ballacallin Farm","","","farm",""
"475393847","node","https://osm.org/node/475393847","54.155782","-4.590588","Ballacallin Mooar","","","farm",""
"475394222","node","https://osm.org/node/475394222","54.395586","-4.365531","Ballacallow","","","farm",""
"475393771","node","https://osm.org/node/475393771","54.383499","-4.487976","Ballacallum","","","locality",""
"475394309","node","https://osm.org/node/475394309","54.385315","-4.488448","Ballacallum Red Gates","","","farm",""
"475393261","node","https://osm.org/node/475393261","54.364176","-4.406575","Ballacamain","","","farm",""
"475393162","node","https://osm.org/node/475393162","54.374534","-4.483879","Ballacamaish Farm","","","farm",""
"475394018","node","https://osm.org/node/475394018","54.119878","-4.711245","Ballacannell","","","farm",""
"475394719","node","https://osm.org/node/475394719","54.216256","-4.406597","Ballacannell","","","locality",""
"475394707","node","https://osm.org/node/475394707","54.266083","-4.608389","Ballacarnane","","","farm",""
"2317670828","node","https://osm.org/node/2317670828","54.26367","-4.609164","Ballacarnane Beg","","","farm",""
"475393141","node","https://osm.org/node/475393141","54.1824","-4.528115","Ballacaroon","","","farm",""
"475394043","node","https://osm.org/node/475394043","54.216737","-4.447677","Ballacarrooin","","","locality",""
"475394379","node","https://osm.org/node/475394379","54.201317","-4.490926","Ballacashin","","","farm",""
"475393108","node","https://osm.org/node/475393108","54.124581","-4.623515","Ballacharry","","","farm",""
"475395148","node","https://osm.org/node/475395148","54.229515","-4.439589","Ballachoan House","","","farm",""
"475395052","node","https://osm.org/node/475395052","54.106825","-4.593024","Ballachrine","","","farm",""
"475393076","node","https://osm.org/node/475393076","54.097822","-4.749077","Ballachrink","","","farm",""
"475393297","node","https://osm.org/node/475393297","54.366282","-4.395365","Ballachrink","","","farm",""
"475393602","node","https://osm.org/node/475393602","54.133949","-4.537071","Ballachrink","","","farm",""
"475393970","node","https://osm.org/node/475393970","54.118141","-4.637933","Ballachrink","","","farm",""
"475394247","node","https://osm.org/node/475394247","54.278815","-4.363853","Ballachrink","","","farm",""
"475394869","node","https://osm.org/node/475394869","54.216044","-4.504526","Ballachrink","","","farm",""
"475395114","node","https://osm.org/node/475395114","54.235816","-4.384445","Ballachrink","","","farm",""
"475395117","node","https://osm.org/node/475395117","54.137705","-4.543507","Ballachrink","","","farm",""
"475394419","node","https://osm.org/node/475394419","54.367434","-4.48188","Ballachrink Beg","","","farm",""
"475393231","node","https://osm.org/node/475393231","54.163506","-4.601163","Ballachrink Farm","","","farm",""
"475393247","node","https://osm.org/node/475393247","54.369278","-4.475994","Ballachrink Farm","","","farm",""
"475393535","node","https://osm.org/node/475393535","54.113198","-4.58248","Ballachrink Farm","","","farm",""
"475393789","node","https://osm.org/node/475393789","54.157405","-4.597387","Ballachrink Farm","","","farm",""
"475394180","node","https://osm.org/node/475394180","54.208549","-4.644312","Ballachrink Farm","","","farm",""
"475394241","node","https://osm.org/node/475394241","54.106175","-4.701059","Ballachrink Farm","","","farm",""
"475394453","node","https://osm.org/node/475394453","54.235023","-4.380171","Ballachrink Farm","","","farm",""
"475394353","node","https://osm.org/node/475394353","54.362912","-4.484757","Ballachristory Farm","","","farm",""
"475393569","node","https://osm.org/node/475393569","54.340248","-4.455374","Ballachurry","","","farm",""
"475393786","node","https://osm.org/node/475393786","54.348533","-4.491498","Ballachurry","","","locality",""
"12068347115","node","https://osm.org/node/12068347115","54.092371","-4.740912","Ballachurry Barns","","","locality",""
"475392974","node","https://osm.org/node/475392974","54.351466","-4.444553","Ballachurry Farm","","","farm",""
"527756351","way","https://osm.org/way/527756351","54.10222442130874","-4.685457346505032","Ballaclague","","","farm",""
"475394689","node","https://osm.org/node/475394689","54.345711","-4.466197","Ballacleator Farm","","","farm",""
"475393315","node","https://osm.org/node/475393315","54.375065","-4.491711","Ballaclucas","","","locality",""
"475395022","node","https://osm.org/node/475395022","54.186012","-4.535045","Ballaclucas","","","farm",""
"475393674","node","https://osm.org/node/475393674","54.216504","-4.424645","Ballacoar","","","farm",""
"475393849","node","https://osm.org/node/475393849","54.30708","-4.548544","Ballacobb","","","farm",""
"475392773","node","https://osm.org/node/475392773","54.215484","-4.418495","Ballacojeen","","","farm",""
"475394272","node","https://osm.org/node/475394272","54.378622","-4.484093","Ballacomaish","","","farm",""
"475393185","node","https://osm.org/node/475393185","54.115636","-4.698999","Ballacomish","","","farm",""
"475394736","node","https://osm.org/node/475394736","54.396408","-4.37044","Ballacondra","","","farm",""
"475395138","node","https://osm.org/node/475395138","54.371221","-4.48335","Ballaconley Farm","","","farm",""
"475394582","node","https://osm.org/node/475394582","54.117267","-4.70885","Ballacooil","","","farm",""
"475395035","node","https://osm.org/node/475395035","54.31719","-4.5579","Ballacooiley","","","farm",""
"475395186","node","https://osm.org/node/475395186","54.137481","-4.568121","Ballacooven","","","farm",""
"475394672","node","https://osm.org/node/475394672","54.327094","-4.551138","Ballacoraige","","","farm",""
"475394120","node","https://osm.org/node/475394120","54.323598","-4.552035","Ballacoraige Farm","","","farm",""
"475394530","node","https://osm.org/node/475394530","54.360954","-4.413736","Ballacorey Farm","","","farm",""
"7857690556","node","https://osm.org/node/7857690556","54.099495","-4.725134","Ballacorkish Mines","","","locality",""
"475394008","node","https://osm.org/node/475394008","54.259727","-4.579078","Ballacorlett Farm","","","farm",""
"475394974","node","https://osm.org/node/475394974","54.264445","-4.582225","Ballacorlett Farm","","","farm",""
"475392825","node","https://osm.org/node/475392825","54.107819","-4.681312","Ballacorrin","","","farm",""
"475394503","node","https://osm.org/node/475394503","54.141743","-4.576964","Ballacorris","","","farm",""
"475394906","node","https://osm.org/node/475394906","54.133565","-4.588971","Ballacorris","","","farm",""
"475393640","node","https://osm.org/node/475393640","54.272225","-4.370855","Ballacorteen Farm","","","farm",""
"475394450","node","https://osm.org/node/475394450","54.198841","-4.68004","Ballacosnahan","","","locality",""
"475393035","node","https://osm.org/node/475393035","54.202067","-4.679317","Ballacosnahan Farm","","","farm",""
"475394740","node","https://osm.org/node/475394740","54.232189","-4.422941","Ballacosney","","","locality",""
"475393146","node","https://osm.org/node/475393146","54.163587","-4.561059","Ballacotch","","","farm",""
"475394946","node","https://osm.org/node/475394946","54.165306","-4.558298","Ballacotch Manor","","","farm",""
"475393303","node","https://osm.org/node/475393303","54.34581","-4.398065","Ballacottier","","","farm",""
"475393379","node","https://osm.org/node/475393379","54.197866","-4.467882","Ballacottier","","","farm",""
"475393978","node","https://osm.org/node/475393978","54.378703","-4.377981","Ballacottier","","","farm",""
"475394006","node","https://osm.org/node/475394006","54.366712","-4.435366","Ballacottier","","","farm",""
"903195505","way","https://osm.org/way/903195505","54.16892728217585","-4.681857936583592","Ballacottier","","","farm",""
"475394999","node","https://osm.org/node/475394999","54.153764","-4.539432","Ballacottier Farm","","","farm",""
"475394253","node","https://osm.org/node/475394253","54.234456","-4.441528","Ballacowin Farm","","","farm",""
"475393112","node","https://osm.org/node/475393112","54.385302","-4.388648","Ballacowle","","","farm",""
"475393953","node","https://osm.org/node/475393953","54.242302","-4.408669","Ballacowle","","","locality",""
"475394640","node","https://osm.org/node/475394640","54.344209","-4.402855","Ballacowle","","","locality",""
"475393135","node","https://osm.org/node/475393135","54.265057","-4.577887","Ballacoyne","","","farm",""
"475394982","node","https://osm.org/node/475394982","54.196016","-4.49663","Ballacoyne","","","farm",""
"448463229","node","https://osm.org/node/448463229","54.20319","-4.629509","Ballacraine","Ballacraine","Balley Craine","hamlet","Q4851317"
"475395010","node","https://osm.org/node/475395010","54.340136","-4.445541","Ballacrebbin","","","farm",""
"475394152","node","https://osm.org/node/475394152","54.393068","-4.406086","Ballacree","","","farm",""
"475394631","node","https://osm.org/node/475394631","54.184201","-4.494791","Ballacreetch Farm","","","farm",""
"475393295","node","https://osm.org/node/475393295","54.091448","-4.705952","Ballacregeen","","","locality",""
"475393542","node","https://osm.org/node/475393542","54.119265","-4.537747","Ballacregga","","","farm",""
"475393594","node","https://osm.org/node/475393594","54.276605","-4.59055","Ballacregga","","","farm",""
"475393842","node","https://osm.org/node/475393842","54.15807","-4.526492","Ballacregga","","","farm",""
"475395203","node","https://osm.org/node/475395203","54.392032","-4.412957","Ballacregga","","","farm",""
"475392799","node","https://osm.org/node/475392799","54.079025","-4.741366","Ballacreggan","","","locality",""
"475393311","node","https://osm.org/node/475393311","54.132202","-4.51797","Ballacreggan","","","farm",""
"475393376","node","https://osm.org/node/475393376","54.297611","-4.359123","Ballacreggan","","","farm",""
"475394278","node","https://osm.org/node/475394278","54.192978","-4.403684","Ballacreggan Farm","","","farm",""
"475394541","node","https://osm.org/node/475394541","54.300064","-4.363774","Ballacreggan House","","","farm",""
"475395045","node","https://osm.org/node/475395045","54.099862","-4.705189","Ballacriy Park","","","locality",""
"475394629","node","https://osm.org/node/475394629","54.128664","-4.599509","Ballacroak","","","farm",""
"837428718","way","https://osm.org/way/837428718","54.10416627871279","-4.684412168289285","Ballacross","","","farm",""
"475395230","node","https://osm.org/node/475395230","54.220768","-4.667477","Ballacross Farm","","","farm",""
"10683492836","node","https://osm.org/node/10683492836","54.348278","-4.493053","Ballacrye","","","farm",""
"475393904","node","https://osm.org/node/475393904","54.312835","-4.526448","Ballacrye Farm","","","farm",""
"475395071","node","https://osm.org/node/475395071","54.121922","-4.609879","Ballacubbon","","","farm",""
"475393188","node","https://osm.org/node/475393188","54.143969","-4.544257","Ballacubbon Farm","","","farm",""
"475394484","node","https://osm.org/node/475394484","54.303276","-4.551109","Ballacurnkeil","","","locality",""
"837428719","way","https://osm.org/way/837428719","54.10423745873986","-4.6831218638884184","Ballacurphey","","","farm",""
"475392950","node","https://osm.org/node/475392950","54.192746","-4.607578","Ballacurry Farm","","","farm",""
"475393057","node","https://osm.org/node/475393057","54.145236","-4.562426","Ballacutchel","","","farm",""
"832376070","way","https://osm.org/way/832376070","54.16265963986994","-4.730872047630078","Balladha","","","farm",""
"475393022","node","https://osm.org/node/475393022","54.150559","-4.577423","Balladhoo","","","locality",""
"475394749","node","https://osm.org/node/475394749","54.204268","-4.417796","Balladhoo","","","farm",""
"283482218","node","https://osm.org/node/283482218","54.083489","-4.68289","Balladoole","","","hamlet",""
"475392926","node","https://osm.org/node/475392926","54.07831","-4.679743","Balladoole","","","locality",""
"475393335","node","https://osm.org/node/475393335","54.35038","-4.386681","Balladoole Beg","","","farm",""
"475393288","node","https://osm.org/node/475393288","54.083179","-4.678565","Balladoole Farm","","","farm","Q118188560"
"475394154","node","https://osm.org/node/475394154","54.347849","-4.388765","Balladoole Farm","","","farm",""
"884071672","way","https://osm.org/way/884071672","54.11534761022487","-4.652464864524811","Balladuggan","","","farm",""
"475395101","node","https://osm.org/node/475395101","54.106805","-4.676174","Balladuke Farm","","","farm",""
"8615275993","node","https://osm.org/node/8615275993","54.240724","-4.581554","Ballaellis","","","locality",""
"475393851","node","https://osm.org/node/475393851","54.290862","-4.568386","Ballafageen","","","farm",""
"475392868","node","https://osm.org/node/475392868","54.282461","-4.334536","Ballafayle","","","farm",""
"475394459","node","https://osm.org/node/475394459","54.395253","-4.37404","Ballafayle","","","farm",""
"475393557","node","https://osm.org/node/475393557","54.279605","-4.338347","Ballafayle-e-callow","","","farm",""
"283500163","node","https://osm.org/node/283500163","54.093959","-4.743098","Ballafesson","","","hamlet",""
"475393384","node","https://osm.org/node/475393384","54.361837","-4.476387","Ballafletcher","","","farm",""
"475393784","node","https://osm.org/node/475393784","54.167991","-4.50031","Ballafletcher Farm","","","farm",""
"475394061","node","https://osm.org/node/475394061","54.115805","-4.685306","Ballafodda","","","farm",""
"475393893","node","https://osm.org/node/475393893","54.105941","-4.685641","Ballafodda Farm","","","farm",""
"475392812","node","https://osm.org/node/475392812","54.176743","-4.537751","Ballafreer Farm","","","farm",""
"475394576","node","https://osm.org/node/475394576","54.172992","-4.538505","Ballafreer House","","","farm",""
"475394538","node","https://osm.org/node/475394538","54.324716","-4.460554","Ballafrog","","","farm",""
"475394611","node","https://osm.org/node/475394611","54.102469","-4.582655","Ballafurt","","","farm",""
"475394314","node","https://osm.org/node/475394314","54.104676","-4.74604","Ballagale","","","locality",""
"475394713","node","https://osm.org/node/475394713","54.363156","-4.511291","Ballagaraghyn","","","farm",""
"475393015","node","https://osm.org/node/475393015","54.218366","-4.500374","Ballagarey","","","farm",""
"10853210528","node","https://osm.org/node/10853210528","54.173569","-4.549952","Ballagarey","","","locality",""
"475394210","node","https://osm.org/node/475394210","54.128527","-4.614096","Ballagarey Farm","","","farm",""
"475393362","node","https://osm.org/node/475393362","54.101808","-4.697829","Ballagarmin","","","farm",""
"9270572386","node","https://osm.org/node/9270572386","54.200964","-4.620203","Ballagarraghyn","","","locality",""
"475395014","node","https://osm.org/node/475395014","54.374347","-4.506872","Ballagarraghyn Farm","","","farm",""
"9270572391","node","https://osm.org/node/9270572391","54.200022","-4.620665","Ballagarraghyn Manor","","","locality",""
"475394037","node","https://osm.org/node/475394037","54.388481","-4.42152","Ballagarrett","","","farm",""
"475393644","node","https://osm.org/node/475393644","54.208351","-4.409951","Ballagawne","","","farm",""
"475393928","node","https://osm.org/node/475393928","54.091178","-4.731301","Ballagawne","","","locality",""
"475394185","node","https://osm.org/node/475394185","54.274634","-4.601383","Ballagawne","","","farm",""
"475395161","node","https://osm.org/node/475395161","54.106845","-4.693856","Ballagawne Farm","","","farm",""
"475394670","node","https://osm.org/node/475394670","54.243485","-4.616518","Ballageeil","","","farm",""
"475394439","node","https://osm.org/node/475394439","54.372023","-4.508672","Ballaghaie","","","farm",""
"475393984","node","https://osm.org/node/475393984","54.365316","-4.434192","Ballaghaue Mansion","","","farm",""
"475393444","node","https://osm.org/node/475393444","54.394055","-4.405608","Ballaghennie","","","farm",""
"475393174","node","https://osm.org/node/475393174","54.132115","-4.581042","Ballagick","","","farm",""
"475392982","node","https://osm.org/node/475392982","54.175294","-4.6505","Ballagill Farm","","","farm",""
"475394944","node","https://osm.org/node/475394944","54.294823","-4.37143","Ballagilley Farm","","","farm",""
"475394471","node","https://osm.org/node/475394471","54.125469","-4.675789","Ballaglashan","","","farm",""
"475392890","node","https://osm.org/node/475392890","54.232715","-4.448451","Ballaglass","","","farm",""
"475393580","node","https://osm.org/node/475393580","54.284424","-4.364804","Ballaglass","","","farm",""
"475392987","node","https://osm.org/node/475392987","54.116475","-4.597505","Ballaglonney","","","farm",""
"475393018","node","https://osm.org/node/475393018","54.148812","-4.559565","Ballaglonney","","","farm",""
"475393087","node","https://osm.org/node/475393087","54.1194","-4.667925","Ballaglonney","","","farm",""
"475394231","node","https://osm.org/node/475394231","54.185647","-4.571896","Ballaglonney","","","farm",""
"475394934","node","https://osm.org/node/475394934","54.103896","-4.751929","Ballaglonney","","","locality",""
"475394588","node","https://osm.org/node/475394588","54.120721","-4.654334","Ballaglonney Farm","","","farm",""
"475394648","node","https://osm.org/node/475394648","54.117088","-4.677938","Ballaglonney Farm","","","farm",""
"475394980","node","https://osm.org/node/475394980","54.133338","-4.627551","Ballagraingey","","","farm",""
"475393455","node","https://osm.org/node/475393455","54.117195","-4.697354","Ballagreyney","","","farm",""
"475394359","node","https://osm.org/node/475394359","54.162762","-4.553011","Ballaguinea Beg","","","farm",""
"475393746","node","https://osm.org/node/475393746","54.17201","-4.558448","Ballaguinnea Mooar","","","farm",""
"475393634","node","https://osm.org/node/475393634","54.375771","-4.482491","Ballagunnell","","","farm",""
"475394703","node","https://osm.org/node/475394703","54.228474","-4.668841","Ballagyr","","","farm",""
"475392774","node","https://osm.org/node/475392774","54.180854","-4.646407","Ballahais","","","farm",""
"475392980","node","https://osm.org/node/475392980","54.078945","-4.752933","Ballahane","","","farm",""
"829241376","way","https://osm.org/way/829241376","54.078905755966055","-4.757463013856535","Ballahane Upper","","","locality",""
"475393463","node","https://osm.org/node/475393463","54.208305","-4.661402","Ballaharra Farm","","","farm",""
"475394627","node","https://osm.org/node/475394627","54.198022","-4.557556","Ballaharry","","","locality",""
"475394295","node","https://osm.org/node/475394295","54.349188","-4.486583","Ballahasney","","","farm",""
"833216570","way","https://osm.org/way/833216570","54.09551789743496","-4.619023521159932","Ballahick","","","farm",""
"475392827","node","https://osm.org/node/475392827","54.191637","-4.635491","Ballahig Farm","","","farm",""
"475394633","node","https://osm.org/node/475394633","54.186738","-4.637065","Ballahig Farm","","","farm",""
"475395200","node","https://osm.org/node/475395200","54.234724","-4.580037","Ballahimmin","","","farm",""
"475394650","node","https://osm.org/node/475394650","54.345924","-4.548587","Ballaholly","","","farm",""
"841971051","way","https://osm.org/way/841971051","54.09983476611227","-4.642242849860197","Ballahot","","","farm",""
"475393126","node","https://osm.org/node/475393126","54.145533","-4.586557","Ballahowin","","","farm",""
"831979531","way","https://osm.org/way/831979531","54.17097274962852","-4.7274165659456715","Ballahutchin Mooar","","","farm",""
"5116615883","node","https://osm.org/node/5116615883","54.294091","-4.48131","Ballaimis","","","locality",""
"475392972","node","https://osm.org/node/475392972","54.126938","-4.592611","Ballajeraie Farm","","","farm",""
"475394255","node","https://osm.org/node/475394255","54.126535","-4.599579","Ballajeroie","","","farm",""
"283481783","node","https://osm.org/node/283481783","54.287549","-4.337946","Ballajora","","","hamlet",""
"475393256","node","https://osm.org/node/475393256","54.133315","-4.63135","Ballajuanvark Farm","","","farm",""
"475393496","node","https://osm.org/node/475393496","54.189686","-4.430353","Ballakaighen","","","farm",""
"475393506","node","https://osm.org/node/475393506","54.247559","-4.621189","Ballakaighen","","","locality",""
"475393902","node","https://osm.org/node/475393902","54.193346","-4.432193","Ballakaighen","","","locality",""
"475394593","node","https://osm.org/node/475394593","54.239286","-4.617996","Ballakaighen","","","farm",""
"475393234","node","https://osm.org/node/475393234","54.242773","-4.618144","Ballakaighen Farm","","","farm",""
"475394494","node","https://osm.org/node/475394494","54.363711","-4.428369","Ballakaneen","","","farm",""
"475392766","node","https://osm.org/node/475392766","54.383054","-4.393817","Ballakeigh","","","farm",""
"475395142","node","https://osm.org/node/475395142","54.083542","-4.673981","Ballakeighan","","","farm",""
"475393884","node","https://osm.org/node/475393884","54.384676","-4.46824","Ballakeil","","","farm",""
"475395073","node","https://osm.org/node/475395073","54.330127","-4.558058","Ballakeiog Farm","","","farm",""
"232183012","way","https://osm.org/way/232183012","54.116513877503564","-4.56786799515188","Ballakelly","","","farm",""
"475393227","node","https://osm.org/node/475393227","54.106176","-4.698806","Ballakelly","","","farm",""
"475393980","node","https://osm.org/node/475393980","54.36812","-4.465","Ballakelly","","","farm",""
"475394163","node","https://osm.org/node/475394163","54.186145","-4.544413","Ballakelly","","","farm",""
"475394738","node","https://osm.org/node/475394738","54.184045","-4.709184","Ballakerkey","","","farm",""
"475394634","node","https://osm.org/node/475394634","54.38884","-4.408417","Ballakesh Farm","","","farm",""
"475392856","node","https://osm.org/node/475392856","54.13267","-4.598696","Ballakew","","","farm",""
"475392863","node","https://osm.org/node/475392863","54.107281","-4.650173","Ballakewin","","","farm",""
"475393473","node","https://osm.org/node/475393473","54.110014","-4.643532","Ballakewin","","","farm",""
"475394952","node","https://osm.org/node/475394952","54.205942","-4.528359","Ballakewish","","","farm",""
"475392828","node","https://osm.org/node/475392828","54.297285","-4.325452","Ballakilley","","","farm",""
"475393773","node","https://osm.org/node/475393773","54.380864","-4.389011","Ballakilley","","","farm",""
"475394545","node","https://osm.org/node/475394545","54.087296","-4.739171","Ballakilley","","","farm",""
"475394762","node","https://osm.org/node/475394762","54.125685","-4.62802","Ballakilley","","","farm",""
"475392969","node","https://osm.org/node/475392969","54.20805","-4.639172","Ballakilley Cottage","","","farm",""
"475394052","node","https://osm.org/node/475394052","54.188401","-4.407057","Ballakilley Farm","","","farm",""
"475394573","node","https://osm.org/node/475394573","54.262423","-4.57682","Ballakilleyclieu","","","farm",""
"475393907","node","https://osm.org/node/475393907","54.321713","-4.424943","Ballakillingan Farm","","","farm",""
"475394146","node","https://osm.org/node/475394146","54.095595","-4.729196","Ballakillowey","","","locality",""
"475395069","node","https://osm.org/node/475395069","54.184818","-4.445553","Ballakilmartin","","","farm",""
"475395087","node","https://osm.org/node/475395087","54.220525","-4.654437","Ballakilmurray","","","farm",""
"286772339","node","https://osm.org/node/286772339","54.106607","-4.716272","Ballakilpheric","","","hamlet","Q4851413"
"475392920","node","https://osm.org/node/475392920","54.390866","-4.449518","Ballakinnag","","","farm",""
"475393440","node","https://osm.org/node/475393440","54.275463","-4.578787","Ballakinnag","","","farm",""
"475393327","node","https://osm.org/node/475393327","54.144849","-4.53122","Ballakinnish","","","hamlet",""
"475393616","node","https://osm.org/node/475393616","54.124304","-4.579892","Ballakissack","","","farm",""
"832386634","way","https://osm.org/way/832386634","54.177633208099486","-4.7179317069786695","Ballalaa","","","farm",""
"475392997","node","https://osm.org/node/475392997","54.226413","-4.447861","Ballaleaney","","","farm",""
"475393264","node","https://osm.org/node/475393264","54.225819","-4.438937","Ballaleaney","","","farm",""
"475393411","node","https://osm.org/node/475393411","54.205835","-4.650605","Ballaleece","","","farm",""
"475394132","node","https://osm.org/node/475394132","54.270093","-4.593299","Ballaleigh","","","farm",""
"475394047","node","https://osm.org/node/475394047","54.357103","-4.422128","Ballalheaney","","","farm",""
"475393777","node","https://osm.org/node/475393777","54.222018","-4.437195","Ballalheannagh Gardens","","","locality",""
"475394301","node","https://osm.org/node/475394301","54.38802","-4.482126","Ballalhen Farm","","","farm",""
"475394015","node","https://osm.org/node/475394015","54.335582","-4.399818","Ballalhergy","","","farm",""
"9270805051","node","https://osm.org/node/9270805051","54.388957","-4.415972","Ballalhergy","","","locality",""
"475393758","node","https://osm.org/node/475393758","54.119447","-4.673644","Ballalona","","","farm",""
"475392795","node","https://osm.org/node/475392795","54.27494","-4.572908","Ballalonna","","","farm",""
"475394000","node","https://osm.org/node/475394000","54.14183","-4.532454","Ballalough","","","farm",""
"828282825","way","https://osm.org/way/828282825","54.083198861221085","-4.659804687388348","Ballalough","","","farm",""
"475392907","node","https://osm.org/node/475392907","54.19966","-4.536219","Ballalough Farm","","","farm",""
"475393872","node","https://osm.org/node/475393872","54.217108","-4.665266","Ballalough Farm","","","farm",""
"475393258","node","https://osm.org/node/475393258","54.104374","-4.67479","Ballamaddrell","","","locality",""
"475393500","node","https://osm.org/node/475393500","54.080499","-4.767779","Ballaman","","","farm",""
"475393451","node","https://osm.org/node/475393451","54.190293","-4.414077","Ballameanagh Mooar","","","farm",""
"475394039","node","https://osm.org/node/475394039","54.192562","-4.505087","Ballamenagh","","","farm",""
"475394131","node","https://osm.org/node/475394131","54.251657","-4.59154","Ballamenagh","","","farm",""
"475394939","node","https://osm.org/node/475394939","54.305122","-4.417992","Ballamenagh","","","locality",""
"475392963","node","https://osm.org/node/475392963","54.349608","-4.504778","Ballamenagh Farm","","","farm",""
"475394298","node","https://osm.org/node/475394298","54.303288","-4.579501","Ballamenaugh House","","","farm",""
"475394708","node","https://osm.org/node/475394708","54.390432","-4.397176","Ballamin","","","farm",""
"475394408","node","https://osm.org/node/475394408","54.17167","-4.645358","Ballamoar","","Ballamoar","farm",""
"475394700","node","https://osm.org/node/475394700","54.178416","-4.643333","Ballamoar","","","farm",""
"475394968","node","https://osm.org/node/475394968","54.115331","-4.703738","Ballamoar","","Ballamoar","farm",""
"890790036","way","https://osm.org/way/890790036","54.205144737537466","-4.683967834602745","Ballamoar","","Ballamoar","farm",""
"475393635","node","https://osm.org/node/475393635","54.33729","-4.505561","Ballamoar Beg Farm","","","farm",""
"475394068","node","https://osm.org/node/475394068","54.350361","-4.511345","Ballamoar Castle","","","farm",""
"475393389","node","https://osm.org/node/475393389","54.307444","-4.53512","Ballamoar Farm","Ballamoar Farm","Ballamoar","farm",""
"475393889","node","https://osm.org/node/475393889","54.233176","-4.379782","Ballamoar Farm","","","farm",""
"475393544","node","https://osm.org/node/475393544","54.202945","-4.517406","Ballamodda Farm","","","farm",""
"283508356","node","https://osm.org/node/283508356","54.130878","-4.637965","Ballamodha","","","hamlet",""
"475394383","node","https://osm.org/node/475394383","54.126497","-4.636214","Ballamodha Beg","","","farm",""
"475393607","node","https://osm.org/node/475393607","54.127698","-4.634364","Ballamodha Mooar","","","farm",""
"475392875","node","https://osm.org/node/475392875","54.175493","-4.623324","Ballamona","","","farm",""
"475394343","node","https://osm.org/node/475394343","54.158823","-4.604639","Ballamona","","","farm",""
"475394430","node","https://osm.org/node/475394430","54.129459","-4.530835","Ballamona","","","farm",""
"475393779","node","https://osm.org/node/475393779","54.331083","-4.542021","Ballamona Beg Farm","","","farm",""
"475395008","node","https://osm.org/node/475395008","54.334809","-4.543342","Ballamona Mooar","","","farm",""
"475392967","node","https://osm.org/node/475392967","54.395588","-4.378363","Ballamooar","","","farm",""
"283511577","node","https://osm.org/node/283511577","54.116326","-4.628735","Ballanank","","","hamlet",""
"475395080","node","https://osm.org/node/475395080","54.176089","-4.49166","Ballanard","","","hamlet",""
"475393723","node","https://osm.org/node/475393723","54.097246","-4.74172","Ballanarran Farm","","","farm",""
"10135859525","node","https://osm.org/node/10135859525","54.24855","-4.645804","Ballanayre Strand","","","locality",""
"475395061","node","https://osm.org/node/475395061","54.264985","-4.585777","Ballanea","","","locality",""
"475393012","node","https://osm.org/node/475393012","54.266984","-4.595376","Ballanea Farm","","","farm",""
"475394941","node","https://osm.org/node/475394941","54.300595","-4.465724","Ballaneary","","","locality",""
"475393137","node","https://osm.org/node/475393137","54.31038","-4.526909","Ballaneddin","","","farm",""
"475393005","node","https://osm.org/node/475393005","54.361915","-4.48528","Ballanelson","","","farm",""
"475393956","node","https://osm.org/node/475393956","54.152841","-4.59713","Ballanicholas Farm","","","farm",""
"10862294647","node","https://osm.org/node/10862294647","54.093209","-4.674955","Ballanorris","","","locality",""
"475394664","node","https://osm.org/node/475394664","54.189898","-4.63004","Ballaoates","","","farm",""
"475394011","node","https://osm.org/node/475394011","54.18441","-4.508072","Ballaoates Farm","","","farm",""
"475394443","node","https://osm.org/node/475394443","54.105371","-4.697036","Ballaoates Farm","","","farm",""
"897297177","way","https://osm.org/way/897297177","54.1834805","-4.5033995","Ballaoates Road","Ballaoates Road","Raad Balley Oates","locality",""
"475393657","node","https://osm.org/node/475393657","54.104347","-4.60751","Ballaquaggan Farm","","","farm",""
"475394369","node","https://osm.org/node/475394369","54.218671","-4.677195","Ballaquane","","","locality",""
"475394684","node","https://osm.org/node/475394684","54.377435","-4.437078","Ballaquane","","","farm",""
"475394173","node","https://osm.org/node/475394173","54.177153","-4.722609","Ballaquane Farm","","","farm",""
"475395215","node","https://osm.org/node/475395215","54.382935","-4.374107","Ballaquark","","","farm",""
"475395083","node","https://osm.org/node/475395083","54.203454","-4.67571","Ballaquayle","","","farm",""
"475393420","node","https://osm.org/node/475393420","54.114201","-4.622852","Ballaquayle Farm","","","farm",""
"829241378","way","https://osm.org/way/829241378","54.08145569901559","-4.744674025633439","Ballaqueeney","","","farm","Q69387717"
"475394577","node","https://osm.org/node/475394577","54.090576","-4.649475","Ballaqueston","","","farm",""
"475394609","node","https://osm.org/node/475394609","54.114305","-4.562367","Ballaquiggin","","","farm",""
"475393584","node","https://osm.org/node/475393584","54.233449","-4.443594","Ballaquine","","","farm",""
"475394105","node","https://osm.org/node/475394105","54.203619","-4.534934","Ballaquine","","","farm",""
"475394599","node","https://osm.org/node/475394599","54.262311","-4.617987","Ballaquine","","","farm",""
"475394291","node","https://osm.org/node/475394291","54.117328","-4.682822","Ballaquinney Farm","","","farm",""
"283478940","node","https://osm.org/node/283478940","54.242137","-4.377508","Ballaragh","","","hamlet",""
"8567404033","node","https://osm.org/node/8567404033","54.17548","-4.638128","Ballargey","","","locality",""
"475393843","node","https://osm.org/node/475393843","54.111006","-4.719424","Ballarhenney","","","farm",""
"475395098","node","https://osm.org/node/475395098","54.297089","-4.585901","Ballarhennie","","","farm",""
"475395171","node","https://osm.org/node/475395171","54.294144","-4.582477","Ballarhenny","","","farm",""
"475394539","node","https://osm.org/node/475394539","54.296918","-4.583224","Ballarhenny Beg","","","farm",""
"475394989","node","https://osm.org/node/475394989","54.110367","-4.727915","Ballarock","","","farm",""
"1287831031","node","https://osm.org/node/1287831031","54.097785","-4.631618","Ballasalla","Ballasalla","Balley Sallagh","village","Q2881163"
"475394097","node","https://osm.org/node/475394097","54.347941","-4.548855","Ballasalla Farm","","","farm",""
"475393254","node","https://osm.org/node/475393254","54.232468","-4.588186","Ballasayle","","","farm",""
"475394101","node","https://osm.org/node/475394101","54.362077","-4.431124","Ballaseyr","","","farm",""
"475392901","node","https://osm.org/node/475392901","54.355046","-4.430039","Ballaseyr Farm","","","farm",""
"475394668","node","https://osm.org/node/475394668","54.12704","-4.535097","Ballashamrock","","","farm",""
"475394534","node","https://osm.org/node/475394534","54.098813","-4.714234","Ballasherlogue","","","farm",""
"475394055","node","https://osm.org/node/475394055","54.265346","-4.379553","Ballasholague Farm","","","farm",""
"475394161","node","https://osm.org/node/475394161","54.279588","-4.345771","Ballaskeig Beg","","","farm",""
"475394883","node","https://osm.org/node/475394883","54.275183","-4.345585","Ballaskeig Mooar","","","farm",""
"283498646","node","https://osm.org/node/283498646","54.277405","-4.493222","Ballaskella","","","hamlet",""
"8378712633","node","https://osm.org/node/8378712633","54.280232","-4.48398","Ballaskella","","","locality",""
"475393179","node","https://osm.org/node/475393179","54.191414","-4.478936","Ballaskelly","","","farm",""
"475393516","node","https://osm.org/node/475393516","54.213839","-4.421325","Ballaskerroo","","","farm",""
"475395029","node","https://osm.org/node/475395029","54.392193","-4.402776","Ballaskilley","","","farm",""
"475393494","node","https://osm.org/node/475393494","54.258111","-4.584937","Ballaskyr","","","farm",""
"475393002","node","https://osm.org/node/475393002","54.360825","-4.409776","Ballasleig","","","farm",""
"475395163","node","https://osm.org/node/475395163","54.134258","-4.512591","Ballaslig","","","farm",""
"475394860","node","https://osm.org/node/475394860","54.283662","-4.35054","Ballasloe Beg","","","farm",""
"475394220","node","https://osm.org/node/475394220","54.202056","-4.664161","Ballaspet","","","farm",""
"475394051","node","https://osm.org/node/475394051","54.200958","-4.65695","Ballaspit","","","farm",""
"475394715","node","https://osm.org/node/475394715","54.205974","-4.629067","Ballaspur","","","farm","Q4851534"
"475393827","node","https://osm.org/node/475393827","54.362535","-4.453567","Ballasteen","","","farm",""
"475392929","node","https://osm.org/node/475392929","54.311375","-4.380791","Ballastowell","","","farm",""
"475393730","node","https://osm.org/node/475393730","54.159595","-4.524754","Ballastowell Farm","","","farm",""
"475393933","node","https://osm.org/node/475393933","54.10754","-4.683689","Ballastroke","","","farm",""
"475394486","node","https://osm.org/node/475394486","54.096744","-4.707828","Ballastrooan","","","locality",""
"475394717","node","https://osm.org/node/475394717","54.343058","-4.553058","Ballateare","","","locality",""
"475393887","node","https://osm.org/node/475393887","54.303785","-4.340294","Ballaterson","","","farm",""
"475393596","node","https://osm.org/node/475393596","54.320937","-4.529688","Ballaterson Beg Farm","","","farm",""
"475394513","node","https://osm.org/node/475394513","54.313137","-4.548615","Ballaterson Farm","","","farm",""
"475395085","node","https://osm.org/node/475395085","54.298065","-4.536391","Ballathoar","","","farm",""
"475392850","node","https://osm.org/node/475392850","54.112062","-4.662331","Ballatrollag Farm","","","farm",""
"83354912","way","https://osm.org/way/83354912","54.31162533014631","-4.542126026758552","Ballaugh","Ballaugh","Balley ny Loghey","village","Q2734562"
"6948740313","node","https://osm.org/node/6948740313","54.311937","-4.543054","Ballaugh","","Balley ny Loughey","village",""
"475394059","node","https://osm.org/node/475394059","54.174462","-4.531366","Ballavagher Farm","","","farm",""
"496611437","node","https://osm.org/node/496611437","54.364644","-4.38883","Ballavair Farm","","","farm",""
"475394326","node","https://osm.org/node/475394326","54.228667","-4.627167","Ballavaish","","","locality",""
"475394462","node","https://osm.org/node/475394462","54.119898","-4.578717","Ballavale","","","farm",""
"475393840","node","https://osm.org/node/475393840","54.111106","-4.591598","Ballavar","","","farm",""
"475393717","node","https://osm.org/node/475393717","54.183036","-4.414239","Ballavarane","","","farm",""
"475393533","node","https://osm.org/node/475393533","54.109827","-4.666675","Ballavarkish","","","farm",""
"475394562","node","https://osm.org/node/475394562","54.378872","-4.37231","Ballavarkish","","","farm",""
"420624701","way","https://osm.org/way/420624701","54.34881278641777","-4.520967900560696","Ballavarran Farm","","","farm",""
"889619377","way","https://osm.org/way/889619377","54.35726411455997","-4.45308136199079","Ballavarry","","","farm",""
"475394793","node","https://osm.org/node/475394793","54.351352","-4.404561","Ballavarteen","","","locality",""
"475394268","node","https://osm.org/node/475394268","54.128314","-4.562811","Ballavartyn","","","farm",""
"475393736","node","https://osm.org/node/475393736","54.140328","-4.603411","Ballavarvane Farm","","","farm",""
"475394526","node","https://osm.org/node/475394526","54.374218","-4.458059","Ballavastyn Farm","","","farm",""
"475392831","node","https://osm.org/node/475392831","54.103204","-4.715394","Ballavayre","","","locality",""
"475394705","node","https://osm.org/node/475394705","54.12821","-4.54133","Ballaveare","","","locality",""
"475393522","node","https://osm.org/node/475393522","54.157992","-4.690781","Ballavell","","","locality",""
"475394744","node","https://osm.org/node/475394744","54.106954","-4.651506","Ballavell Farm","","","farm",""
"475394182","node","https://osm.org/node/475394182","54.288884","-4.356331","Ballavelt Farm","","","farm",""
"475394029","node","https://osm.org/node/475394029","54.108375","-4.574295","Ballavilley","","","farm",""
"475393688","node","https://osm.org/node/475393688","54.358227","-4.43893","Ballavoddan","","","farm",""
"475394822","node","https://osm.org/node/475394822","54.106798","-4.63095","Ballavoddan","","","farm",""
"475393608","node","https://osm.org/node/475393608","54.346998","-4.525177","Ballavoirrey","","","farm",""
"475394178","node","https://osm.org/node/475394178","54.31522","-4.523555","Ballavolley","","","farm",""
"475394964","node","https://osm.org/node/475394964","54.382905","-4.482311","Ballawanton","","","farm",""
"475393358","node","https://osm.org/node/475393358","54.222388","-4.676586","Ballawattleworth","","","locality",""
"475393011","node","https://osm.org/node/475393011","54.381728","-4.468514","Ballawhane","","","farm",""
"475392835","node","https://osm.org/node/475392835","54.388015","-4.412553","Ballawhannell","","","farm",""
"10862294646","node","https://osm.org/node/10862294646","54.096708","-4.66982","Ballawhetstone","","","farm",""
"475393252","node","https://osm.org/node/475393252","54.248767","-4.411319","Ballawill","","","farm",""
"475394604","node","https://osm.org/node/475394604","54.209796","-4.508092","Ballawillan Beg","","","farm",""
"475394812","node","https://osm.org/node/475394812","54.208121","-4.671947","Ballawillyn Farm","","","farm",""
"833216592","way","https://osm.org/way/833216592","54.096908464576956","-4.6052909412831955","Ballawoods","","","farm",""
"475394235","node","https://osm.org/node/475394235","54.211319","-4.507901","Ballawyllin","","","farm",""
"475392779","node","https://osm.org/node/475392779","54.118832","-4.709177","Ballayack","","","farm",""
"475393846","node","https://osm.org/node/475393846","54.188949","-4.554408","Ballayemmy","","","locality",""
"475392777","node","https://osm.org/node/475392777","54.343364","-4.432745","Ballayockey Cottage","","","farm",""
"475395157","node","https://osm.org/node/475395157","54.248241","-4.41308","Ballayolgane Farm","","","farm",""
"475393861","node","https://osm.org/node/475393861","54.380663","-4.37988","Ballayonaigue","","","farm",""
"475393139","node","https://osm.org/node/475393139","54.369005","-4.456532","Balleigh","","","farm",""
"475393705","node","https://osm.org/node/475393705","54.288655","-4.587157","Balleira Farm","","","farm",""
"475394734","node","https://osm.org/node/475394734","54.172894","-4.728026","Ballelby Farm","","","farm",""
"475393555","node","https://osm.org/node/475393555","54.262497","-4.37392","Ballellin Farm","","","farm",""
"475394349","node","https://osm.org/node/475394349","54.162944","-4.546497","Ballerghy","","","farm",""
"475394134","node","https://osm.org/node/475394134","54.196749","-4.50963","Balliargey","","","farm",""
"475392869","node","https://osm.org/node/475392869","54.246818","-4.596656","Ballig","","","farm",""
"475392986","node","https://osm.org/node/475392986","54.212865","-4.521716","Ballig","","","farm",""
"475394218","node","https://osm.org/node/475394218","54.21144","-4.629423","Ballig","","","farm",""
"475394619","node","https://osm.org/node/475394619","54.264508","-4.376293","Ballig","","","farm",""
"475392937","node","https://osm.org/node/475392937","54.207657","-4.631401","Ballig Farm","","","farm",""
"475394013","node","https://osm.org/node/475394013","54.186946","-4.452719","Ballig Farm","","","farm",""
"475394479","node","https://osm.org/node/475394479","54.365621","-4.477557","Ballig Farm","","","farm",""
"475394927","node","https://osm.org/node/475394927","54.133751","-4.527351","Ballig House","","","farm",""
"902489571","way","https://osm.org/way/902489571","54.1635438301197","-4.564511869133653","Ballingan Farm","","","farm",""
"475394102","node","https://osm.org/node/475394102","54.078597","-4.764214","Ballnahowe","","","locality",""
"475392957","node","https://osm.org/node/475392957","54.179216","-4.717695","Ballnalargy","","","farm",""
"475393529","node","https://osm.org/node/475393529","54.176082","-4.530521","Ballona","","","locality",""
"475394986","node","https://osm.org/node/475394986","54.315199","-4.372987","Ballure","","","locality","Q4851960"
"475393104","node","https://osm.org/node/475393104","54.288227","-4.587141","Ballyre House","","","farm",""
"475392882","node","https://osm.org/node/475392882","54.115217","-4.550703","Balnahow Farm","","","farm",""
"38256632","way","https://osm.org/way/38256632","54.09293666658543","-4.626321190743703","Balthane Industrial Estate","","","estate",""
"12214678282","node","https://osm.org/node/12214678282","54.095428","-4.625633","Balthane Park","","","locality",""
"10141524237","node","https://osm.org/node/10141524237","54.100171","-4.580186","Banner Rock","","","locality",""
"475393898","node","https://osm.org/node/475393898","54.289366","-4.570094","Barnagh","","","farm",""
"9270805050","node","https://osm.org/node/9270805050","54.389111","-4.410514","Barnagh","","","locality",""
"9273355143","node","https://osm.org/node/9273355143","54.186878","-4.685173","Barnell","","","locality",""
"475392785","node","https://osm.org/node/475392785","54.261758","-4.353958","Barony Farm","","","farm",""
"475392961","node","https://osm.org/node/475392961","54.159685","-4.726028","Barrane","","","locality",""
"475395119","node","https://osm.org/node/475395119","54.2605","-4.582301","Barregarrow","","","locality","Q4863306"
"475394158","node","https://osm.org/node/475394158","54.204256","-4.422194","Barroose Farm","","","farm",""
"475393395","node","https://osm.org/node/475393395","54.198365","-4.568194","Bawshen","","","farm",""
"10726755120","node","https://osm.org/node/10726755120","54.08274","-4.689996","Beachcroft Farm","","","farm",""
"10141570943","node","https://osm.org/node/10141570943","54.074423","-4.737106","Bealevayer Rocks","","","locality",""
"10145032819","node","https://osm.org/node/10145032819","54.135364","-4.724884","Beeay-feayn ny Geay","","Beeay-feayn ny Geay","locality",""
"835099422","way","https://osm.org/way/835099422","54.36232357079528","-4.503004124283842","Beehive","","","farm",""
"475393600","node","https://osm.org/node/475393600","54.199926","-4.438494","Begoade","","","farm",""
"475394605","node","https://osm.org/node/475394605","54.192615","-4.440685","Begoade Farm","","","farm",""
"475392959","node","https://osm.org/node/475392959","54.35459","-4.44402","Belfast Farm","","","farm",""
"475392905","node","https://osm.org/node/475392905","54.274976","-4.594259","Berk","","","locality",""
"475393671","node","https://osm.org/node/475393671","54.349039","-4.498695","Berrag","","","farm",""
"475393031","node","https://osm.org/node/475393031","54.185432","-4.436536","Bibaloe Beg","","","farm",""
"475394429","node","https://osm.org/node/475394429","54.181319","-4.445802","Bibaloe Glen","","","locality",""
"475395198","node","https://osm.org/node/475395198","54.180315","-4.438921","Bibaloe-Moar","","","farm",""
"475394224","node","https://osm.org/node/475394224","54.092425","-4.660608","Billown","","","farm",""
"10145032850","node","https://osm.org/node/10145032850","54.220548","-4.708467","Bing Buiee","","Bing Buiee","locality",""
"10145032851","node","https://osm.org/node/10145032851","54.222592","-4.70475","Bing Buiee","","Bing Buiee","locality",""
"10740184846","node","https://osm.org/node/10740184846","54.182127","-4.462917","Birch Hill","","","locality",""
"475393381","node","https://osm.org/node/475393381","54.299636","-4.566588","Bishops Demense","","","locality",""
"475392791","node","https://osm.org/node/475392791","54.299467","-4.552365","Bishops Demesne","","","farm",""
"475394622","node","https://osm.org/node/475394622","54.300012","-4.571044","Bishopscourt","","","locality","Q4918083"
"475394505","node","https://osm.org/node/475394505","54.303102","-4.561924","Bishopscourt Cottages","","","farm",""
"475393934","node","https://osm.org/node/475393934","54.300516","-4.56688","Bishopscourt Farm","","","farm",""
"10169149506","node","https://osm.org/node/10169149506","54.070973","-4.625931","Black Rock","","","locality",""
"475394021","node","https://osm.org/node/475394021","54.109051","-4.622247","Blackhill","","","farm",""
"475393301","node","https://osm.org/node/475393301","54.278736","-4.465315","Block Eary","","","locality",""
"9913524885","node","https://osm.org/node/9913524885","54.393091","-4.476738","Blue Point","Blue Point","","locality",""
"475394767","node","https://osm.org/node/475394767","54.375875","-4.41609","Boal Chirrym","","","farm",""
"475394553","node","https://osm.org/node/475394553","54.128457","-4.622471","Boilane","","","farm",""
"9285188895","node","https://osm.org/node/9285188895","54.218449","-4.40925","Boilley Veen","","Boilley Veen","locality",""
"475394772","node","https://osm.org/node/475394772","54.340942","-4.399435","Bolivia Mount","","","farm",""
"475393829","node","https://osm.org/node/475393829","54.209991","-4.548514","Bolrenny","","","locality",""
"480792255","way","https://osm.org/way/480792255","54.22682002530706","-4.385931388627385","Bonner Corner","","","locality",""
"8662320153","node","https://osm.org/node/8662320153","54.222237","-4.500938","Booiley-vane","","Booiley-vane","locality",""
"475393685","node","https://osm.org/node/475393685","54.207477","-4.509642","Booilshuggel","","","farm",""
"475394723","node","https://osm.org/node/475394723","54.290793","-4.32934","Booilushag","","","locality",""
"283490552","node","https://osm.org/node/283490552","54.154726","-4.573602","Braaid","","","hamlet","Q3756667"
"475393655","node","https://osm.org/node/475393655","54.197311","-4.550267","Braaid Farm","","","farm",""
"10740142685","node","https://osm.org/node/10740142685","54.155501","-4.573158","Braaid Farm","","","farm",""
"475394346","node","https://osm.org/node/475394346","54.212624","-4.653889","Brack-a-broom","","","farm",""
"283510910","node","https://osm.org/node/283510910","54.096079","-4.75576","Bradda East","","","hamlet",""
"283505417","node","https://osm.org/node/283505417","54.094663","-4.766164","Bradda West","","","hamlet",""
"10141404657","node","https://osm.org/node/10141404657","54.202012","-4.3936","Braggan Point","","","locality",""
"475393766","node","https://osm.org/node/475393766","54.195459","-4.476838","Brandish","","","locality","Q4956708"
"8555436566","node","https://osm.org/node/8555436566","54.242469","-4.471316","Brandywell","","","locality","Q4957266"
"953096388","node","https://osm.org/node/953096388","54.248288","-4.540601","Brandywell Cottage","","","isolated_dwelling",""
"475393755","node","https://osm.org/node/475393755","54.3743","-4.432459","Braust Farm","","","farm",""
"475392844","node","https://osm.org/node/475392844","54.368515","-4.511352","Bretney Farm","","","farm",""
"475394763","node","https://osm.org/node/475394763","54.380522","-4.445797","Briarfield House","","","farm",""
"81765835","way","https://osm.org/way/81765835","54.38189666077224","-4.388365558095201","Bride","Bride","Vreeshey","village",""
"9306730399","node","https://osm.org/node/9306730399","54.382077","-4.388857","Bride","Bride","Vreeshey","village","Q2925151"
"10141404663","node","https://osm.org/node/10141404663","54.167726","-4.437131","Brither Clip Gut","","","locality",""
"5284251522","node","https://osm.org/node/5284251522","54.06","-4.8","British Isles","","","archipelago","Q38272"
"10864504143","node","https://osm.org/node/10864504143","54.15718","-4.477193","Broadway Roundel","","","junction",""
"475394384","node","https://osm.org/node/475394384","54.308968","-4.407468","Brookdale","","","locality",""
"475394032","node","https://osm.org/node/475394032","54.183915","-4.610273","Brookland","","","farm",""
"475392768","node","https://osm.org/node/475392768","54.184808","-4.499842","Brooklands","","","farm",""
"475395135","node","https://osm.org/node/475395135","54.309677","-4.553069","Brough Jairg Moar","","","farm",""
"475393283","node","https://osm.org/node/475393283","54.310061","-4.560414","Broughjairg Beg","","","farm",""
"475392801","node","https://osm.org/node/475392801","54.309582","-4.565336","Broughjairg Mooar","","","farm",""
"475394551","node","https://osm.org/node/475394551","54.18245","-4.45451","Brownswood","","","farm",""
"475395047","node","https://osm.org/node/475395047","54.241178","-4.378573","Bulgham Farm","","","farm",""
"475394436","node","https://osm.org/node/475394436","54.303372","-4.507619","Bullrenney","","","locality",""
"8567404035","node","https://osm.org/node/8567404035","54.17797","-4.637709","Bulltrooan","","","locality",""
"475393102","node","https://osm.org/node/475393102","54.250472","-4.464174","Bungalow","","","locality","Q3339482"
"10145032817","node","https://osm.org/node/10145032817","54.131938","-4.728903","Burroo Meanagh","","Burroo Meanagh","locality",""
"10145016505","node","https://osm.org/node/10145016505","54.127499","-4.731194","Burroo Mooar","","Burroo Mooar","locality",""
"10145016516","node","https://osm.org/node/10145016516","54.133763","-4.724965","Burroo Sodjey","","Burroo Sodjey","locality",""
"10145016493","node","https://osm.org/node/10145016493","54.04282","-4.814527","Burrow","","","locality",""
"8381923714","node","https://osm.org/node/8381923714","54.178071","-4.689659","Buthinbane","","","locality",""
"475394721","node","https://osm.org/node/475394721","54.283646","-4.33368","Bwoaillee Losht","","","farm",""
"10145032844","node","https://osm.org/node/10145032844","54.209374","-4.718856","Cabbyl-ny-lord","","Cabbyl-ny-lord","locality",""
"475395081","node","https://osm.org/node/475395081","54.377843","-4.446843","Cain's Croft","","","farm",""
"10135859528","node","https://osm.org/node/10135859528","54.235325","-4.664167","Cain's Strand","","","locality",""
"25987471","way","https://osm.org/way/25987471","54.05241531993421","-4.815287424917366","Calf of Man","Calf of Man","Yn Cholloo","island","Q125389"
"100443840","way","https://osm.org/way/100443840","54.073974033710186","-4.654610133515163","Callow's Yard","","","estate",""
"475394520","node","https://osm.org/node/475394520","54.177476","-4.522493","Camlork","","","farm",""
"475393742","node","https://osm.org/node/475393742","54.269333","-4.577323","Cammal","","","farm",""
"475393099","node","https://osm.org/node/475393099","54.266368","-4.577194","Cammall Farm","","","farm",""
"475394063","node","https://osm.org/node/475394063","54.152386","-4.601725","Campbell Bridge","","","locality",""
"475393612","node","https://osm.org/node/475393612","54.283524","-4.373762","Cardle Veg","","","farm",""
"475392964","node","https://osm.org/node/475392964","54.282343","-4.374197","Cardle Vooar","","","farm",""
"475394564","node","https://osm.org/node/475394564","54.181038","-4.669767","Carnagrie","","","locality",""
"10145032821","node","https://osm.org/node/10145032821","54.111505","-4.738167","Carnanes","","","locality",""
"475393498","node","https://osm.org/node/475393498","54.315881","-4.475461","Carrick House","","","farm",""
"10141570941","node","https://osm.org/node/10141570941","54.076431","-4.726227","Carthure Rocks","","","locality",""
"10145032846","node","https://osm.org/node/10145032846","54.214838","-4.713029","Cashtal Mooar","","Cashtal Mooar","locality",""
"10135859529","node","https://osm.org/node/10135859529","54.234598","-4.665586","Cass Strooan","","Cass Strooan","locality",""
"10141541807","node","https://osm.org/node/10141541807","54.093049","-4.596434","Cass-ny-Howin Head","","","locality",""
"475392897","node","https://osm.org/node/475392897","54.338651","-4.539245","Castle Lake","","","farm",""
"10131472250","node","https://osm.org/node/10131472250","54.074547","-4.652816","Castletown","Castletown","Balley Chashtal","town","Q158530"
"475394286","node","https://osm.org/node/475394286","54.178046","-4.504252","Castleward Farm","","","farm",""
"475394386","node","https://osm.org/node/475394386","54.178524","-4.517436","Chapel Field","","","locality",""
"475394070","node","https://osm.org/node/475394070","54.077348","-4.740965","Chapel Gate","","","locality",""
"8355978176","node","https://osm.org/node/8355978176","54.079191","-4.681154","Chapel Hill","","","locality",""
"9276069109","node","https://osm.org/node/9276069109","54.259914","-4.597115","Chester Farm","","","locality",""
"475394400","node","https://osm.org/node/475394400","54.153702","-4.577108","Chibbanagh Farm","","","farm",""
"10141570930","node","https://osm.org/node/10141570930","54.069549","-4.621311","Chibbyr Drine","","Chibbyr Drine","locality",""
"144846041","way","https://osm.org/way/144846041","54.038025368477996","-4.837625595319326","Chicken Rock","Chicken Rock","Carrick ny Kirkey","island","Q125547"
"5122160673","node","https://osm.org/node/5122160673","54.153366","-4.701729","Chleig Fheeiney","","","locality",""
"830320624","way","https://osm.org/way/830320624","54.06929295724264","-4.769418384776499","Church Farm","","","farm",""
"10864504144","node","https://osm.org/node/10864504144","54.154417","-4.478229","Church Road Marina Roundel","","","junction",""
"10720127017","node","https://osm.org/node/10720127017","54.318768","-4.424249","Churchtown","","","locality",""
"10141541812","node","https://osm.org/node/10141541812","54.069172","-4.610731","Clabbery","","","locality",""
"475394755","node","https://osm.org/node/475394755","54.323333","-4.467326","Claddagh Mill","","","farm",""
"475393731","node","https://osm.org/node/475393731","54.103467","-4.72428","Clagh Ard","","","locality",""
"475394350","node","https://osm.org/node/475394350","54.164521","-4.682029","Claghbane","","","locality",""
"475394624","node","https://osm.org/node/475394624","54.359363","-4.42422","Clareville","","","farm",""
"475393514","node","https://osm.org/node/475393514","54.343128","-4.398256","Clarke Villa","","","farm",""
"10141404658","node","https://osm.org/node/10141404658","54.197163","-4.387708","Clay Head","","","locality",""
"475394843","node","https://osm.org/node/475394843","54.197444","-4.39506","Clay Head Farm","","","farm",""
"475392999","node","https://osm.org/node/475392999","54.198573","-4.395125","Clayhead","","","locality",""
"8398345464","node","https://osm.org/node/8398345464","54.08975","-4.762689","Clearwater Sea Farm","","","locality",""
"8874384734","node","https://osm.org/node/8874384734","54.236253","-4.458686","Cleigh Clagh","","","locality",""
"475393372","node","https://osm.org/node/475393372","54.138062","-4.6136","Cleighrour","","","farm",""
"10145016496","node","https://osm.org/node/10145016496","54.067909","-4.79168","Clet Aldrick","","Clet Aldrick","locality",""
"104685749","way","https://osm.org/way/104685749","54.050863908987836","-4.829042296459214","Clett Ellby","","","islet",""
"10145032818","node","https://osm.org/node/10145032818","54.136647","-4.723558","Cloaie Head","","","locality",""
"475394508","node","https://osm.org/node/475394508","54.156996","-4.615693","Cloghwilly Farm","","","farm",""
"475394305","node","https://osm.org/node/475394305","54.263213","-4.507763","Close","","","locality",""
"475394594","node","https://osm.org/node/475394594","54.327604","-4.471765","Close Chirrym","","","farm",""
"475392933","node","https://osm.org/node/475392933","54.141618","-4.63853","Close Clark","","","farm",""
"475394919","node","https://osm.org/node/475394919","54.333132","-4.43964","Close Lake","","","farm",""
"475394373","node","https://osm.org/node/475394373","54.324971","-4.52917","Close Moar","","","farm",""
"475393996","node","https://osm.org/node/475393996","54.240429","-4.44133","Close Mooar Farm","","","farm",""
"475393788","node","https://osm.org/node/475393788","54.327408","-4.530322","Close Sartfield","","","farm",""
"475394243","node","https://osm.org/node/475394243","54.378159","-4.452468","Close Sayle","","","farm",""
"475393409","node","https://osm.org/node/475393409","54.332345","-4.516829","Close Taggart","","","farm",""
"475394141","node","https://osm.org/node/475394141","54.347773","-4.451695","Close Vark","","","farm",""
"475393749","node","https://osm.org/node/475393749","54.339862","-4.483789","Close William","","","farm",""
"1317463349","way","https://osm.org/way/1317463349","54.32048184751692","-4.383761607129353","Close Woirrey","Mary's Close","Close Woirrey","city_block",""
"10169149507","node","https://osm.org/node/10169149507","54.069488","-4.682869","Close ny Chollagh Point","","","locality",""
"475394023","node","https://osm.org/node/475394023","54.330545","-4.460242","Close yn Ellan","","","farm",""
"475394398","node","https://osm.org/node/475394398","54.344052","-4.48424","Close-e-caley","","","farm",""
"475393546","node","https://osm.org/node/475393546","54.340176","-4.533057","Close-e-kelly","","","farm",""
"475393553","node","https://osm.org/node/475393553","54.338002","-4.491805","Close-e-kewin","","","locality",""
"475393864","node","https://osm.org/node/475393864","54.341443","-4.486437","Close-e-kewin","","","farm",""
"475394148","node","https://osm.org/node/475394148","54.139439","-4.641851","Clougher","","","farm",""
"475394312","node","https://osm.org/node/475394312","54.123381","-4.63713","Cly-ny-Mona","","Cly-ny-Mona","farm",""
"475393037","node","https://osm.org/node/475393037","54.156421","-4.538855","Clybane Farm","","","farm",""
"283517272","node","https://osm.org/node/283517272","54.155242","-4.529697","Clybane Manor","","","locality",""
"475394296","node","https://osm.org/node/475394296","54.271593","-4.576737","Clyeen","","","farm",""
"475394477","node","https://osm.org/node/475394477","54.197182","-4.454712","Clypse Beg","","","locality",""
"475395122","node","https://osm.org/node/475395122","54.192961","-4.458621","Clypse Cottages","","","farm",""
"475393987","node","https://osm.org/node/475393987","54.196234","-4.455132","Clypse Lodge","","","farm",""
"475392788","node","https://osm.org/node/475392788","54.197323","-4.457147","Clypse Moar","","","farm",""
"60499872","way","https://osm.org/way/60499872","54.09805010774928","-4.703250292173953","Colby","Colby","Colbee","village","Q5142001"
"1287831033","node","https://osm.org/node/1287831033","54.096602","-4.704633","Colby","Colby","Colby","village","Q5142001"
"842400476","node","https://osm.org/node/842400476","54.103404","-4.70533","Colby Glen","Colby Glen","Glion Colby","hamlet",""
"7776235661","node","https://osm.org/node/7776235661","54.067983","-4.749583","Colloway","","","locality",""
"475394334","node","https://osm.org/node/475394334","54.151507","-4.547522","Colooney's","","","farm",""
"10145016513","node","https://osm.org/node/10145016513","54.139214","-4.730812","Con Shellagh","","Con Shellagh","locality",""
"30610269","way","https://osm.org/way/30610269","54.150434052856376","-4.468916496611131","Conister Rock","Conister Rock","Kione y Sker","island","Q2637690"
"475392892","node","https://osm.org/node/475392892","54.206099","-4.437254","Conrhenny","","","farm",""
"475393085","node","https://osm.org/node/475393085","54.310569","-4.36771","Cooil","","","farm",""
"475393150","node","https://osm.org/node/475393150","54.15399","-4.540026","Cooil","","","locality",""
"475393804","node","https://osm.org/node/475393804","54.269422","-4.585011","Cooil Dharry","","Cooil Dharry","locality",""
"475393133","node","https://osm.org/node/475393133","54.200371","-4.427773","Cooil Roi","","","farm",""
"10135755263","node","https://osm.org/node/10135755263","54.288847","-4.325868","Cooil ny Marrey","","Cooil ny Marrey","locality",""
"475393029","node","https://osm.org/node/475393029","54.121957","-4.597265","Cooilcam","","","farm",""
"475394410","node","https://osm.org/node/475394410","54.275639","-4.584173","Cooildarry","","","locality",""
"475395136","node","https://osm.org/node/475395136","54.364169","-4.49365","Cooildhoo","","","farm",""
"475394156","node","https://osm.org/node/475394156","54.273466","-4.575354","Cooilshellagh","","","farm",""
"475395184","node","https://osm.org/node/475395184","54.206808","-4.59453","Cooilslieu","","","farm",""
"475393196","node","https://osm.org/node/475393196","54.293928","-4.565251","Cooley Lodge","","","farm",""
"10135755257","node","https://osm.org/node/10135755257","54.303516","-4.315519","Cor Stack","","Cor Stack","locality",""
"475394532","node","https://osm.org/node/475394532","54.145365","-4.648465","Corlea","","","locality",""
"475395145","node","https://osm.org/node/475395145","54.14391","-4.646952","Corlea Farm","","","farm",""
"475395133","node","https://osm.org/node/475395133","54.362063","-4.407269","Corley","","","farm",""
"475394645","node","https://osm.org/node/475394645","54.278073","-4.402808","Cornaa","","","farm",""
"8563980765","node","https://osm.org/node/8563980765","54.279547","-4.356367","Cornaa","","","locality",""
"475393446","node","https://osm.org/node/475393446","54.181579","-4.61301","Cornelly House","","","farm",""
"8563980770","node","https://osm.org/node/8563980770","54.27932","-4.376198","Corrany","","","locality",""
"8400744409","node","https://osm.org/node/8400744409","54.276542","-4.499966","Corrody","","","locality",""
"8400891252","node","https://osm.org/node/8400891252","54.273886","-4.497706","Corrody","","","locality",""
"475394197","node","https://osm.org/node/475394197","54.246935","-4.615989","Corvalley","","","locality",""
"475394275","node","https://osm.org/node/475394275","54.250971","-4.624246","Corvalley","","","farm",""
"475394390","node","https://osm.org/node/475394390","54.162475","-4.568572","Corvalley Farm","","","farm",""
"475393177","node","https://osm.org/node/475393177","54.327948","-4.555867","Corvalley House","","","farm",""
"115752152","way","https://osm.org/way/115752152","54.32561547994281","-4.5558303180350554","Corvalley South Farm","","","farm",""
"475393880","node","https://osm.org/node/475393880","54.18739","-4.546799","Corvonagh","","","farm",""
"475393866","node","https://osm.org/node/475393866","54.131533","-4.564428","Court Farm","","","farm",""
"475394213","node","https://osm.org/node/475394213","54.242983","-4.400247","Craftwallyvean","","","locality",""
"475394948","node","https://osm.org/node/475394948","54.343582","-4.469737","Craig Farm","","","farm",""
"475394643","node","https://osm.org/node/475394643","54.276026","-4.573669","Craighouse Farm","","","farm",""
"8378712632","node","https://osm.org/node/8378712632","54.280813","-4.492775","Craigmore","","","locality",""
"475395091","node","https://osm.org/node/475395091","54.344264","-4.502694","Craigs Croft","","","farm",""
"475393813","node","https://osm.org/node/475393813","54.265241","-4.501911","Crammag","","","locality",""
"283513982","node","https://osm.org/node/283513982","54.39264","-4.37156","Cranstal","","","hamlet",""
"10145032843","node","https://osm.org/node/10145032843","54.206976","-4.71552","Creag Vollan","","Cream Vollan","locality",""
"475394341","node","https://osm.org/node/475394341","54.16014","-4.730881","Creg Adha","","","locality",""
"10141570918","node","https://osm.org/node/10141570918","54.061839","-4.616466","Creg Custane","","Creg Custane","locality",""
"10141570929","node","https://osm.org/node/10141570929","54.060717","-4.628562","Creg Ineen Thalleyr","","Creg Ineen Thalley","locality",""
"8398345460","node","https://osm.org/node/8398345460","54.081568","-4.774904","Creg Liauyr","","Creg Liauyr","locality",""
"10145032832","node","https://osm.org/node/10145032832","54.16861","-4.741543","Creg Mooar","","Greg Mooar","locality",""
"10145016508","node","https://osm.org/node/10145016508","54.132586","-4.733184","Creg Venagh","","Creg Venagh","locality",""
"10858941283","node","https://osm.org/node/10858941283","54.231021","-4.617503","Creg Willey's Hill","","","locality","Q5183967"
"10141570942","node","https://osm.org/node/10141570942","54.075422","-4.736354","Creg y Chreel","","Creg y Chreel","locality",""
"10141570945","node","https://osm.org/node/10141570945","54.072393","-4.735117","Creg y Leech","","Creg y Leech","locality",""
"475394657","node","https://osm.org/node/475394657","54.27386","-4.376068","Creg-na-molt","","","farm",""
"475393925","node","https://osm.org/node/475393925","54.20715","-4.467374","Creg-ny-baa","","","locality","Q5183966"
"8662320150","node","https://osm.org/node/8662320150","54.230218","-4.491494","Creg-y-cowin","","Creg-y-cowin","locality",""
"8662320151","node","https://osm.org/node/8662320151","54.224252","-4.490524","Creg-y-cowin","","Creg-y-cowin","locality",""
"475395154","node","https://osm.org/node/475395154","54.18984","-4.577284","Cregbeg","","","farm",""
"5122176550","node","https://osm.org/node/5122176550","54.160264","-4.696636","Cregg ny crock","","","locality",""
"5115198726","node","https://osm.org/node/5115198726","54.274382","-4.495555","Creggan","","","locality",""
"832376085","way","https://osm.org/way/832376085","54.16112941436364","-4.7275533301040955","Creggan Moar","","Creggan Moar","farm",""
"475393831","node","https://osm.org/node/475393831","54.239411","-4.643471","Creggan Mooar","","","locality",""
"4900486725","node","https://osm.org/node/4900486725","54.069676","-4.76819","Cregneash","Cregneash","Creneash","hamlet","Q3750807"
"10145016515","node","https://osm.org/node/10145016515","54.13109","-4.720062","Cregyn Doo","","Cregyn Doo","locality",""
"8494899669","node","https://osm.org/node/8494899669","54.13952","-4.681906","Cringle","","","locality",""
"475392977","node","https://osm.org/node/475392977","54.123205","-4.550263","Crogga","","","hamlet",""
"475393647","node","https://osm.org/node/475393647","54.124584","-4.547998","Crogga Bridge","","","hamlet",""
"475393024","node","https://osm.org/node/475393024","54.270611","-4.509488","Croit","","","locality",""
"475395104","node","https://osm.org/node/475395104","54.09545","-4.696535","Croit","","","farm",""
"961630750","node","https://osm.org/node/961630750","54.142335","-4.653741","Croit Vane","","","farm",""
"9007112477","node","https://osm.org/node/9007112477","54.117658","-4.725246","Croit-e-Kirkjufal","","","locality",""
"475394355","node","https://osm.org/node/475394355","54.090315","-4.719185","Croit-e-caley","","","locality",""
"475392940","node","https://osm.org/node/475392940","54.390989","-4.38253","Croit-e-creggan","","","farm",""
"475394616","node","https://osm.org/node/475394616","54.329853","-4.525352","Croit-ny-gurrin","","","farm",""
"475393418","node","https://osm.org/node/475393418","54.263342","-4.353506","Croit-ny-phurt","","","farm",""
"475393620","node","https://osm.org/node/475393620","54.24535","-4.398812","Croitcloughbane","","","farm",""
"475393792","node","https://osm.org/node/475393792","54.316783","-4.405642","Cronk Aalin","","","farm",""
"10861109168","node","https://osm.org/node/10861109168","54.260002","-4.578752","Cronk Aashen","","","farm",""
"10145016498","node","https://osm.org/node/10145016498","54.109868","-4.747913","Cronk Aittin","","Cronk Aittin","locality",""
"475394262","node","https://osm.org/node/475394262","54.19713","-4.553419","Cronk Breae","","Cronk Breae","locality",""
"475394107","node","https://osm.org/node/475394107","54.294639","-4.563619","Cronk Dhoo","","","locality",""
"475394958","node","https://osm.org/node/475394958","54.381012","-4.429217","Cronk Heose","","","farm",""
"8349920229","node","https://osm.org/node/8349920229","54.214672","-4.51216","Cronk Keeill Abban","","Cronk Keeill Abban","locality",""
"475393531","node","https://osm.org/node/475393531","54.306174","-4.581903","Cronk Koir","","","locality",""
"475393483","node","https://osm.org/node/475393483","54.132624","-4.607715","Cronk Rhennie","","","farm",""
"475393726","node","https://osm.org/node/475393726","54.330158","-4.415628","Cronk Ruagh","","Cronk Ruagh","locality",""
"475393566","node","https://osm.org/node/475393566","54.272259","-4.579224","Cronk Urleigh","","","farm",""
"475392916","node","https://osm.org/node/475392916","54.244329","-4.580032","Cronk ny Fedjag","","","farm",""
"475395043","node","https://osm.org/node/475395043","54.384514","-4.49281","Cronk y Bing","","","locality",""
"475394490","node","https://osm.org/node/475394490","54.29179","-4.57845","Cronk y Croghee","","","locality",""
"475393116","node","https://osm.org/node/475393116","54.374097","-4.516137","Cronk y Scottey","","","locality",""
"475394923","node","https://osm.org/node/475394923","54.072526","-4.679898","Cronk y Watch","","","farm",""
"475394381","node","https://osm.org/node/475394381","54.107284","-4.714984","Cronk-e-Dhooney","","","locality",""
"475393972","node","https://osm.org/node/475393972","54.182278","-4.650947","Cronk-e-king","","","farm",""
"475395188","node","https://osm.org/node/475395188","54.18342","-4.476031","Cronk-ny-mona","","Cronk-ny-mona","locality",""
"475393858","node","https://osm.org/node/475393858","54.097079","-4.697972","Cronk-y-Thatcher","","Cronk-y-Thatcher","locality",""
"475392771","node","https://osm.org/node/475392771","54.240333","-4.606352","Cronk-y-Voddy","","Cronk-y-Voddy","locality",""
"475392993","node","https://osm.org/node/475392993","54.39006","-4.450709","Cronk-y-chree","","","farm",""
"475393366","node","https://osm.org/node/475393366","54.381469","-4.372038","Cronkbane","","","farm",""
"475394259","node","https://osm.org/node/475394259","54.135635","-4.531189","Cronkbane","","","farm",""
"475395128","node","https://osm.org/node/475395128","54.243378","-4.605328","Cronkbane","","Cronkbane","locality",""
"283502980","node","https://osm.org/node/283502980","54.168795","-4.496574","Cronkbourne Village","","","locality",""
"475393639","node","https://osm.org/node/475393639","54.196711","-4.61534","Cronkbreck","","","farm",""
"475393751","node","https://osm.org/node/475393751","54.351042","-4.448345","Cronkbreck","","","farm",""
"475393757","node","https://osm.org/node/475393757","54.378025","-4.503673","Cronkbreck","","","farm",""
"475394049","node","https://osm.org/node/475394049","54.340913","-4.423555","Cronkbreck","","","farm",""
"475393610","node","https://osm.org/node/475393610","54.196863","-4.602078","Cronkdhoo","","","farm",""
"475394375","node","https://osm.org/node/475394375","54.243683","-4.555365","Cronkdoo","","","farm",""
"475393836","node","https://osm.org/node/475393836","54.305676","-4.45945","Cronkgarroo","","","farm",""
"475394289","node","https://osm.org/node/475394289","54.222446","-4.434229","Cronkmoar","","","locality",""
"828897231","way","https://osm.org/way/828897231","54.09133326770845","-4.693729946612051","Cronkmooar","","","farm",""
"475395190","node","https://osm.org/node/475395190","54.309679","-4.531609","Cronkould Farm","","","farm",""
"475394960","node","https://osm.org/node/475394960","54.13087","-4.675058","Cronkshannaugh","","","farm",""
"10141570939","node","https://osm.org/node/10141570939","54.080185","-4.71386","Cronnag","","Cronnag","locality",""
"475394347","node","https://osm.org/node/475394347","54.370495","-4.38445","Crosby","","","farm",""
"1773962836","node","https://osm.org/node/1773962836","54.184373","-4.566361","Crosby","","","village",""
"1086222245","way","https://osm.org/way/1086222245","54.18360919807809","-4.567846935223525","Crosby Meadows","","","estate",""
"780295091","node","https://osm.org/node/780295091","54.095064","-4.646813","Cross Four Ways","","","hamlet",""
"475395107","node","https://osm.org/node/475395107","54.315014","-4.39796","Crossags Cottage","","","locality",""
"475394434","node","https://osm.org/node/475394434","54.29915","-4.337393","Crowville","","","farm",""
"475394877","node","https://osm.org/node/475394877","54.351389","-4.490062","Cuffsend","","","farm",""
"10145016495","node","https://osm.org/node/10145016495","54.049356","-4.827227","Culbery","","","locality",""
"475394119","node","https://osm.org/node/475394119","54.351348","-4.393405","Curragh Beg","","","farm",""
"475393320","node","https://osm.org/node/475393320","54.193699","-4.601127","Curragh Glass","","","locality",""
"10145032822","node","https://osm.org/node/10145032822","54.142569","-4.729828","Da Leura","","","locality",""
"831979532","way","https://osm.org/way/831979532","54.1691181905608","-4.729071045097701","Dalby","","Delbee","hamlet","Q5210270"
"10305031877","node","https://osm.org/node/10305031877","54.168886","-4.729359","Dalby","","Delbee","hamlet","Q5210270"
"475394666","node","https://osm.org/node/475394666","54.312374","-4.488964","Dalveitch","","","farm",""
"475394692","node","https://osm.org/node/475394692","54.101177","-4.713572","Dandy Rigg","","","farm",""
"283513569","node","https://osm.org/node/283513569","54.076843","-4.624166","Derbyhaven","Derbyhaven","Camys y Ree","hamlet","Q158444"
"10865032997","node","https://osm.org/node/10865032997","54.255875","-4.625437","Devil's Elbow","","","locality","Q108802802"
"283510261","node","https://osm.org/node/283510261","54.254172","-4.372088","Dhoon","","","hamlet",""
"475394016","node","https://osm.org/node/475394016","54.254194","-4.373031","Dhoon Farm","","","farm",""
"475392814","node","https://osm.org/node/475392814","54.339174","-4.400386","Dhoor","","Dhoor","locality",""
"475393026","node","https://osm.org/node/475393026","54.37939","-4.445742","Dhowin","","Dhowin","locality",""
"475394765","node","https://osm.org/node/475394765","54.161612","-4.728636","Doarish Mooar","","","farm",""
"475393622","node","https://osm.org/node/475393622","54.171636","-4.651654","Doarlish Ard","","Doarlish Ard","locality",""
"6936874660","node","https://osm.org/node/6936874660","54.170321","-4.709237","Doarlish Cashen","Cashen's Gap","Doarlish Cashen","locality",""
"475393123","node","https://osm.org/node/475393123","54.317128","-4.548845","Dollagh","","","hamlet",""
"475393475","node","https://osm.org/node/475393475","54.314578","-4.549913","Dollagh Beg Farm","","","farm",""
"475392970","node","https://osm.org/node/475392970","54.323196","-4.534282","Dollaugh Moar","","","farm",""
"2199688788","node","https://osm.org/node/2199688788","54.149774","-4.477902","Douglas","Douglas","Doolish","city","Q18569"
"1905894110","node","https://osm.org/node/1905894110","54.143217","-4.467937","Douglas Head","Douglas Head","Kione Ghoolish","locality","Q5301580"
"186123467","way","https://osm.org/way/186123467","54.14564487152809","-4.47709068936564","Douglas Head Industrial Estate","","","estate",""
"475393365","node","https://osm.org/node/475393365","54.21165","-4.606444","Dowse","","","locality",""
"10145032842","node","https://osm.org/node/10145032842","54.202627","-4.714516","Dreem Long","","Dream Long","locality",""
"475393738","node","https://osm.org/node/475393738","54.138143","-4.609348","Dreemfroy","","","farm",""
"475393089","node","https://osm.org/node/475393089","54.236221","-4.622507","Dreemlang","","","farm",""
"475393268","node","https://osm.org/node/475393268","54.16445","-4.591817","Dreemlang Farm","","","farm",""
"283509321","node","https://osm.org/node/283509321","54.292449","-4.336417","Dreemskerry","","","village",""
"475394614","node","https://osm.org/node/475394614","54.297473","-4.346959","Dreemskerry Farm","","","farm",""
"10169149505","node","https://osm.org/node/10169149505","54.053827","-4.626821","Dreswick Harbour","","","locality",""
"10141570924","node","https://osm.org/node/10141570924","54.053535","-4.625038","Dreswick Rocks","","Ellan Vretyn","locality",""
"953082759","node","https://osm.org/node/953082759","54.263032","-4.522136","Druidale","","","locality",""
"420624699","way","https://osm.org/way/420624699","54.268265546941386","-4.507316888608934","Druidale Farm","","","farm",""
"10145032825","node","https://osm.org/node/10145032825","54.148807","-4.733043","Dul Ushtey","","Dul Ushtey","locality",""
"10145016501","node","https://osm.org/node/10145016501","54.119208","-4.744376","Eairnyerey","","Eairnyerey","locality",""
"475394690","node","https://osm.org/node/475394690","54.18415","-4.683467","Eairy","","","locality",""
"901966234","way","https://osm.org/way/901966234","54.22449404281609","-4.60482692083157","Eairy Moar Farm","","","farm",""
"475394003","node","https://osm.org/node/475394003","54.164974","-4.602519","Eairy Ploydwell","","","farm",""
"475393061","node","https://osm.org/node/475393061","54.208444","-4.548807","Eairy-ne-suie","","","locality",""
"475395059","node","https://osm.org/node/475395059","54.169824","-4.591887","Eairyjora Farm","","","farm",""
"475394441","node","https://osm.org/node/475394441","54.171843","-4.590055","Eairykellag Farm","","","farm",""
"475394676","node","https://osm.org/node/475394676","54.245956","-4.572828","Eary Farm","","","farm",""
"475393400","node","https://osm.org/node/475393400","54.176485","-4.593558","Eary Kelly Cottage","","","farm",""
"475393571","node","https://osm.org/node/475393571","54.206599","-4.55192","Eary Vane","","","locality",""
"475394330","node","https://osm.org/node/475394330","54.204716","-4.528674","Eary Veg","","","farm",""
"8662320152","node","https://osm.org/node/8662320152","54.22292","-4.495736","Eary Ween","","Eary Ween","farm",""
"475394522","node","https://osm.org/node/475394522","54.230619","-4.59056","Earyglass","","Earyglass","locality",""
"475394293","node","https://osm.org/node/475394293","54.302863","-4.504486","Earykellue","","","locality",""
"475393131","node","https://osm.org/node/475393131","54.111325","-4.703218","Earystane","","","locality",""
"10665811947","node","https://osm.org/node/10665811947","54.115717","-4.705153","Earystane Village","","","locality",""
"10687993263","node","https://osm.org/node/10687993263","54.215046","-4.502112","East Baldwin","","","locality",""
"475392918","node","https://osm.org/node/475392918","54.371685","-4.502212","East Bretney","","","farm",""
"475392840","node","https://osm.org/node/475392840","54.325784","-4.476837","East Kella","","","farm",""
"475393917","node","https://osm.org/node/475393917","54.227322","-4.65121","East Lhergydhoo","","","farm",""
"475393397","node","https://osm.org/node/475393397","54.355938","-4.540628","East Nappin","","","farm",""
"475394109","node","https://osm.org/node/475394109","54.364328","-4.530749","East Sartfield","","","farm",""
"1205089445","way","https://osm.org/way/1205089445","54.15093517115671","-4.536456372401905","Eden Business Park","","","estate",""
"475394195","node","https://osm.org/node/475394195","54.360437","-4.49334","Ellan Farm","","","farm",""
"475394074","node","https://osm.org/node/475394074","54.330046","-4.516005","Ellan Rhennee","","","farm",""
"10145032838","node","https://osm.org/node/10145032838","54.195751","-4.718776","Ellan by Maughol","","Ellan ny Maughol","locality",""
"475393324","node","https://osm.org/node/475393324","54.322256","-4.447885","Ellanbane","","","farm",""
"475393930","node","https://osm.org/node/475393930","54.324413","-4.43969","Ellanbane Farm","","","farm",""
"475394560","node","https://osm.org/node/475394560","54.137143","-4.514101","Ellenbrook","","","locality",""
"475392894","node","https://osm.org/node/475392894","54.136753","-4.516379","Ellenbrook Farm","","","farm",""
"10853252546","node","https://osm.org/node/10853252546","54.173759","-4.560181","Ellerslie","","","locality",""
"475393974","node","https://osm.org/node/475393974","54.175281","-4.569976","Ellerslie Farm","","","farm",""
"475393127","node","https://osm.org/node/475393127","54.185794","-4.561485","Eyreton Farm","","","farm",""
"12034890925","node","https://osm.org/node/12034890925","54.185452","-4.561901","Eyreton Farm Cottages","","","locality",""
"12034890905","node","https://osm.org/node/12034890905","54.18372","-4.562592","Eyreton Lea","","","locality",""
"475393721","node","https://osm.org/node/475393721","54.310261","-4.372239","Farrane","","","locality",""
"475393119","node","https://osm.org/node/475393119","54.339418","-4.451694","Farrants Fort","","","farm",""
"10145032829","node","https://osm.org/node/10145032829","54.153585","-4.730029","Fheustal","","Fheustal","locality",""
"8330279087","node","https://osm.org/node/8330279087","54.138706","-4.472902","Fiddler's Green","","","locality",""
"475393700","node","https://osm.org/node/475393700","54.111378","-4.627547","Fildraw","","","farm",""
"9382502048","node","https://osm.org/node/9382502048","54.072832","-4.748068","Fistard","","","locality",""
"283520468","node","https://osm.org/node/283520468","54.106523","-4.752628","Fleshwick","","","locality",""
"475394482","node","https://osm.org/node/475394482","54.186003","-4.552238","Focronk","","","farm",""
"83376253","way","https://osm.org/way/83376253","54.17017020550697","-4.635224278019069","Foxdale","Foxdale","Forsdal","village","Q3750799"
"6948694189","node","https://osm.org/node/6948694189","54.169534","-4.634924","Foxdale","Foxdale","Forsdal","village","Q3750799"
"1175398104","way","https://osm.org/way/1175398104","54.090213090381226","-4.630658141498217","Freeport","","","estate",""
"8203365499","node","https://osm.org/node/8203365499","54.099195","-4.675628","Friary Park","","","locality",""
"491619166","node","https://osm.org/node/491619166","54.078814","-4.730355","Gansey","","","hamlet",""
"10141570940","node","https://osm.org/node/10141570940","54.078051","-4.729847","Gansey Point","","","locality",""
"475394122","node","https://osm.org/node/475394122","54.183932","-4.677672","Garey","","","locality",""
"10145016510","node","https://osm.org/node/10145016510","54.138025","-4.730089","Garey Beg","","Garey Beg","locality",""
"8494916869","node","https://osm.org/node/8494916869","54.131478","-4.689143","Garey Mooar","","","locality",""
"10145016503","node","https://osm.org/node/10145016503","54.125203","-4.739252","Garroo Clagh","","Garroo Clagh","locality",""
"475392944","node","https://osm.org/node/475392944","54.349034","-4.545679","Gawnes Croft","","","farm",""
"10145016514","node","https://osm.org/node/10145016514","54.136812","-4.732159","Geinnagh Vane","","Geinnagh Vane","locality",""
"10169149508","node","https://osm.org/node/10169149508","54.075052","-4.686887","Ghaw Gortagh","","Ghaw Gortagh","locality",""
"10145016494","node","https://osm.org/node/10145016494","54.0482","-4.826484","Ghaw Lang","","Ghaw Lang","locality",""
"8398345467","node","https://osm.org/node/8398345467","54.090833","-4.769414","Ghaw ny Pharick","","","locality",""
"10135755267","node","https://osm.org/node/10135755267","54.253656","-4.357279","Gian Wooar","","Gian Wooar","locality",""
"475394114","node","https://osm.org/node/475394114","54.137332","-4.628995","Gibdale","","","farm",""
"393664305","way","https://osm.org/way/393664305","54.323170472707886","-4.393770706110863","Gladstone Park Industrial Estate","","","estate",""
"475394596","node","https://osm.org/node/475394596","54.360549","-4.393122","Glascoe Farm","","","farm",""
"842808330","way","https://osm.org/way/842808330","54.104243029601754","-4.618783746402795","Glashen Farm","","","farm",""
"475394144","node","https://osm.org/node/475394144","54.309646","-4.410438","Glen Auldyn","","","locality",""
"475393550","node","https://osm.org/node/475393550","54.138451","-4.661637","Glen Cam","","","farm",""
"12170284384","node","https://osm.org/node/12170284384","54.071974","-4.751963","Glen Chass","","","locality",""
"475392807","node","https://osm.org/node/475392807","54.177715","-4.649278","Glen Dhoo","","","farm",""
"475393064","node","https://osm.org/node/475393064","54.186703","-4.477614","Glen Dhoo","","","farm",""
"475394104","node","https://osm.org/node/475394104","54.109504","-4.579797","Glen Grenaugh","","","farm",""
"475395150","node","https://osm.org/node/475395150","54.225739","-4.616811","Glen Helen","","","locality","Q5567809"
"283479392","node","https://osm.org/node/283479392","54.184658","-4.70306","Glen Maye","Glen Maye","Glion Meay","village","Q3495211"
"283495844","node","https://osm.org/node/283495844","54.271792","-4.376332","Glen Mona","","","hamlet",""
"459406601","node","https://osm.org/node/459406601","54.270623","-4.603746","Glen Mooar","","","locality",""
"8335676414","node","https://osm.org/node/8335676414","54.175278","-4.689095","Glen Mooar","","","locality",""
"38336588","way","https://osm.org/way/38336588","54.177867259484344","-4.550575203334627","Glen Vine","Glen Vine","Glion Vian","village",""
"1773962837","node","https://osm.org/node/1773962837","54.176946","-4.552984","Glen Vine","","Glion Vian","village","Q5568088"
"459406602","node","https://osm.org/node/459406602","54.280065","-4.589766","Glen Wyllin","","","locality",""
"475394931","node","https://osm.org/node/475394931","54.200623","-4.658594","Glenaspet","","","farm",""
"475392879","node","https://osm.org/node/475392879","54.073204","-4.75376","Glenchass","","","locality",""
"475392833","node","https://osm.org/node/475392833","54.3151","-4.489237","Glendale","","","farm",""
"829241369","way","https://osm.org/way/829241369","54.07854362182504","-4.751614286023133","Glendown","","","farm",""
"475394581","node","https://osm.org/node/475394581","54.318643","-4.443584","Glenduff","","","locality",""
"475395229","node","https://osm.org/node/475395229","54.179912","-4.655067","Gleneedle","","","farm",""
"8279567696","node","https://osm.org/node/8279567696","54.213034","-4.69723","Glenfaba Bridge","","","locality",""
"12211947339","node","https://osm.org/node/12211947339","54.217939","-4.695674","Glenfaba Park","Glenfaba Park","Pairk Ghlion Fabey","locality",""
"10570900527","node","https://osm.org/node/10570900527","54.216491","-4.694526","Glenfaba Rise","","","locality",""
"899018916","way","https://osm.org/way/899018916","54.171091246255486","-4.5443336074869345","Glenlough Farm","","","farm",""
"475392776","node","https://osm.org/node/475392776","54.132532","-4.652764","Glenmoar Farm","","","farm",""
"475394978","node","https://osm.org/node/475394978","54.29866","-4.47723","Glenmooar","","","locality",""
"475393662","node","https://osm.org/node/475393662","54.243349","-4.642809","Glenside","","","farm",""
"475393430","node","https://osm.org/node/475393430","54.106707","-4.578023","Glentraugh","","","farm",""
"475394175","node","https://osm.org/node/475394175","54.386899","-4.395012","Glentruan","","","farm",""
"475394511","node","https://osm.org/node/475394511","54.318192","-4.438677","Glentruman","","","locality",""
"475393744","node","https://osm.org/node/475393744","54.186377","-4.481103","Glenville","","","farm",""
"475394474","node","https://osm.org/node/475394474","54.262876","-4.585984","Glion Aalin","","","farm",""
"10870067073","node","https://osm.org/node/10870067073","54.268679","-4.611283","Glion Beg","","","locality",""
"10145032827","node","https://osm.org/node/10145032827","54.146524","-4.73029","Glion Mooar","","Glion Mooar","locality",""
"10145032826","node","https://osm.org/node/10145032826","54.144346","-4.728903","Glion ny Coayr","","Glion ny Coayr","locality",""
"8335740140","node","https://osm.org/node/8335740140","54.162283","-4.683613","Glionn Corragh","","","locality",""
"5122165152","node","https://osm.org/node/5122165152","54.154583","-4.696607","Glionn-ny-brack","","","locality",""
"10145032824","node","https://osm.org/node/10145032824","54.147536","-4.733706","Gob Breac","","Gob Breac","locality",""
"10141524232","node","https://osm.org/node/10141524232","54.115936","-4.531723","Gob Lhiack","","Gob Lhiack","locality",""
"10145032820","node","https://osm.org/node/10145032820","54.121729","-4.736198","Gob ny Beinn","","Gob ny Beinn","locality",""
"10145032840","node","https://osm.org/node/10145032840","54.198302","-4.716927","Gob ny Callin","","Gob ny Callin","locality",""
"10145032828","node","https://osm.org/node/10145032828","54.154938","-4.73029","Gob ny Cameren","","Gob ny Cameren","locality",""
"10145032836","node","https://osm.org/node/10145032836","54.193059","-4.717791","Gob ny Chassan","","Gob ny Chassan","locality",""
"8560328952","node","https://osm.org/node/8560328952","54.262806","-4.409167","Gob ny Daa Slieau","","","locality",""
"10135755260","node","https://osm.org/node/10135755260","54.290603","-4.318198","Gob ny Portmooar","","Gob ny Portmooar","locality",""
"10135755255","node","https://osm.org/node/10135755255","54.311197","-4.351539","Gob ny Rona","","Gob ny Rona","locality",""
"10145032835","node","https://osm.org/node/10145032835","54.190108","-4.719821","Gob ny Sharray","","Gob ny Sharray","locality",""
"10141404655","node","https://osm.org/node/10141404655","54.207527","-4.401404","Gob ny Silvas","","Gob ny Silvas","locality",""
"10135755258","node","https://osm.org/node/10135755258","54.298437","-4.309463","Gob ny Skey","","Gob ny Skey","locality",""
"10141404656","node","https://osm.org/node/10141404656","54.202788","-4.396097","Gob ny Stowell","","Gob ny Stowell","locality",""
"10135755259","node","https://osm.org/node/10135755259","54.295648","-4.308824","Gob ny Strona","","Gob ny Strona","locality",""
"10145032823","node","https://osm.org/node/10145032823","54.146076","-4.734088","Gob ny Ushtey","","Gob ny Ushtey","locality",""
"8662320149","node","https://osm.org/node/8662320149","54.228718","-4.483173","Gob y Greggagh","","Gob y Creggagh","locality",""
"10141404654","node","https://osm.org/node/10141404654","54.218673","-4.397937","Gob y Rheynn","","Gob y Rheynn","locality",""
"10135755266","node","https://osm.org/node/10135755266","54.261018","-4.346543","Gob-ny-Cally","","Gob-ny-Cally","locality",""
"10135755265","node","https://osm.org/node/10135755265","54.264618","-4.344195","Gob-ny-how","","Gob-ny-how","locality",""
"475395018","node","https://osm.org/node/475395018","54.202538","-4.471736","Gobnageay","","","farm",""
"8555436824","node","https://osm.org/node/8555436824","54.305433","-4.381823","Gooseneck","","","locality",""
"832386636","way","https://osm.org/way/832386636","54.189570936034315","-4.703191557193256","Gordon","","","locality",""
"475395067","node","https://osm.org/node/475395067","54.266391","-4.517165","Gorse Mill","","","farm",""
"10868094898","node","https://osm.org/node/10868094898","54.171815","-4.46829","Governor's Bridge","","","locality","Q5589441"
"475393960","node","https://osm.org/node/475393960","54.317111","-4.470789","Grange Farm","","","farm",""
"10141570921","node","https://osm.org/node/10141570921","54.057108","-4.620241","Grave Gullet","","","locality",""
"475392911","node","https://osm.org/node/475392911","54.127773","-4.569869","Great Gates","","","farm",""
"283519596","node","https://osm.org/node/283519596","54.086742","-4.652849","Great Meadow","","","hamlet",""
"5116659028","node","https://osm.org/node/5116659028","54.257581","-4.445644","Great Snaefell Mine","","","locality",""
"475394455","node","https://osm.org/node/475394455","54.197852","-4.610606","Greeba","","","locality","Q5601579"
"458533125","node","https://osm.org/node/458533125","54.196848","-4.605775","Greeba Bridge","","","locality","Q5601577"
"475393094","node","https://osm.org/node/475393094","54.248279","-4.629447","Greengate Farm","","","farm",""
"283514634","node","https://osm.org/node/283514634","54.118007","-4.655781","Grenaby","","","hamlet",""
"475394065","node","https://osm.org/node/475394065","54.35969","-4.399915","Grenaby","","","farm",""
