{"version": 0.6, "generator": "Overpass API 0.7.62.1 084b4234", "osm3s": {"timestamp_osm_base": "2024-03-27T21:17:44Z", "copyright": "The data included in this document is from www.openstreetmap.org. The data is made available under ODbL."}, "elements": [{"type": "node", "id": 455297045, "lat": 54.154579, "lon": -4.5741658, "tags": {"bus": "yes", "highway": "bus_stop", "name": "Braaid Concrete Shelter", "public_transport": "platform", "ref": "1302"}}, {"type": "node", "id": 455297055, "lat": 54.1544805, "lon": -4.5741366, "tags": {"bus": "yes", "highway": "bus_stop", "name": "Braaid Timber Shelter", "public_transport": "platform", "ref": "1301"}}, {"type": "node", "id": 456430220, "lat": 54.1660663, "lon": -4.4653089, "tags": {"bus": "yes", "highway": "bus_stop", "name": "Queens Promenade / Regency Hotel", "public_transport": "platform", "railway": "tram_stop", "ref": "123 / 20113", "request_stop": "yes", "tram": "yes"}}, {"type": "node", "id": 456430288, "lat": 54.1663745, "lon": -4.4710006, "tags": {"bus": "yes", "highway": "bus_stop", "name": "Victoria Road / Centre House", "public_transport": "platform", "ref": "20149"}}, {"type": "node", "id": 456469150, "lat": 54.1632841, "lon": -4.4751746, "tags": {"bus": "yes", "highway": "bus_stop", "name": "Victoria Road / Mona Drive Junction", "public_transport": "platform", "ref": "20147"}}, {"type": "node", "id": 457636009, "lat": 54.0810472, "lon": -4.7429076, "tags": {"bus": "yes", "highway": "bus_stop", "name": "Port St Mary Railway Station", "public_transport": "platform", "ref": "901"}}, {"type": "node", "id": 463207451, "lat": 54.163011, "lon": -4.4760513, "tags": {"bus": "yes", "highway": "bus_stop", "name": "Victoria Crescent Shelter", "public_transport": "platform", "ref": "156", "shelter": "yes"}}, {"type": "node", "id": 463207464, "lat": 54.1670218, "lon": -4.4608532, "tags": {"bench": "yes", "bus": "yes", "highway": "bus_stop", "name": "Derby Castle MER Station", "network": "Bus Vannin", "operator": "Isle Of Man Transport", "public_transport": "platform", "railway": "tram_stop", "ref": "124 / 20112", "request_stop": "yes", "shelter": "yes", "tram": "yes"}}, {"type": "node", "id": 469407654, "lat": 54.2338677, "lon": -4.405392, "tags": {"bus": "yes", "highway": "bus_stop", "name": "Captain's Hill Junction", "public_transport": "platform", "ref": "3416"}}, {"type": "node", "id": 469407662, "lat": 54.2312072, "lon": -4.4065349, "tags": {"bus": "yes", "highway": "bus_stop", "name": "Laxey Glen", "public_transport": "platform", "ref": "3411"}}, {"type": "node", "id": 469407669, "lat": 54.2291491, "lon": -4.4033425, "tags": {"bus": "yes", "highway": "bus_stop", "name": "The Queens Hotel", "public_transport": "platform", "ref": "3410"}}, {"type": "node", "id": 469407671, "lat": 54.2073711, "lon": -4.4067175, "tags": {"bus": "yes", "highway": "bus_stop", "name": "Ballagawne Road", "public_transport": "platform", "ref": "3315"}}, {"type": "node", "id": 469407673, "lat": 54.2002833, "lon": -4.4139719, "tags": {"bus": "yes", "highway": "bus_stop", "name": "Baldrine Layby", "public_transport": "platform", "ref": "3312"}}, {"type": "node", "id": 469407674, "lat": 54.1975178, "lon": -4.4173056, "tags": {"bus": "yes", "highway": "bus_stop", "name": "Ballamenagh Road", "public_transport": "platform", "ref": "3309"}}, {"type": "node", "id": 498484848, "lat": 54.1519623, "lon": -4.4835288, "tags": {"bus": "yes", "highway": "bus_stop", "name": "Bucks Road / Tynwald Street", "public_transport": "platform", "ref": "130"}}, {"type": "node", "id": 549539735, "lat": 54.1685208, "lon": -4.7292881, "tags": {"bus": "yes", "highway": "bus_stop", "public_transport": "platform"}}, {"type": "node", "id": 549539737, "lat": 54.1687634, "lon": -4.7295248, "tags": {"bus": "yes", "highway": "bus_stop", "name": "Dalby Niarbyl Road Junction", "public_transport": "platform", "ref": "7302"}}, {"type": "node", "id": 683433055, "lat": 54.233283, "lon": -4.4061449, "tags": {"bench": "yes", "bus": "yes", "covered": "yes", "highway": "bus_stop", "name": "Mines Tavern / Mines Road Junctions", "operator": "Bus Vannin", "public_transport": "platform", "ref": "3413", "shelter": "yes"}}, {"type": "node", "id": 683433058, "lat": 54.2307218, "lon": -4.3965016, "tags": {"bus": "yes", "highway": "bus_stop", "name": "Minorca Shelter", "public_transport": "platform", "ref": "3502"}}, {"type": "node", "id": 683433061, "lat": 54.230714, "lon": -4.3967242, "tags": {"bus": "yes", "highway": "bus_stop", "name": "Minorca", "public_transport": "platform", "ref": "3501"}}, {"type": "node", "id": 683437702, "lat": 54.1952933, "lon": -4.6366475, "tags": {"bus": "yes", "highway": "bus_stop", "public_transport": "platform"}}, {"type": "node", "id": 683440480, "lat": 54.1812777, "lon": -4.6414017, "tags": {"bus": "yes", "highway": "bus_stop", "name": "Lower Foxdale / Hamilton Close Shelter", "public_transport": "platform", "ref": "11504"}}, {"type": "node", "id": 685338692, "lat": 54.1549783, "lon": -4.4846839, "tags": {"bus": "yes", "highway": "bus_stop", "name": "Prospect Terrace", "public_transport": "platform", "ref": "20128"}}, {"type": "node", "id": 685338703, "lat": 54.1543069, "lon": -4.4848129, "tags": {"bus": "yes", "highway": "bus_stop", "name": "Rosemount Church", "public_transport": "platform", "ref": "131", "shelter": "yes"}}, {"type": "node", "id": 685539625, "lat": 54.1503866, "lon": -4.4812587, "tags": {"bus": "yes", "highway": "bus_stop", "name": "Prospect Hill", "public_transport": "platform", "ref": "129", "shelter": "yes"}}, {"type": "node", "id": 685539638, "lat": 54.1504154, "lon": -4.4810192, "tags": {"bus": "yes", "highway": "bus_stop", "name": "Prospect Hill / Finch Road", "public_transport": "platform", "ref": "10107", "shelter": "no"}}, {"type": "node", "id": 740377152, "lat": 54.124656, "lon": -4.5340296, "tags": {"bus": "yes", "highway": "bus_stop", "name": "Port Soderick Car Park", "public_transport": "platform", "ref": "12902"}}, {"type": "node", "id": 740377180, "lat": 54.1245996, "lon": -4.5338112, "tags": {"bus": "yes", "highway": "bus_stop", "name": "Port Soderick Car Park", "public_transport": "platform", "ref": "12905"}}, {"type": "node", "id": 745987473, "lat": 54.098306, "lon": -4.6283611, "tags": {"bus": "yes", "highway": "bus_stop", "name": "Ballasalla Main Road Stop", "public_transport": "platform", "ref": "406", "shelter": "yes"}}, {"type": "node", "id": 745987474, "lat": 54.0978704, "lon": -4.6292021, "tags": {"bus": "yes", "highway": "bus_stop", "name": "Ballasalla Main Stop Southbound", "public_transport": "platform", "ref": "405"}}, {"type": "node", "id": 745987476, "lat": 54.081107, "lon": -4.6418617, "tags": {"bus": "yes", "highway": "bus_stop", "name": "King William's College Shelter", "public_transport": "platform", "ref": "604"}}, {"type": "node", "id": 766863293, "lat": 54.0730238, "lon": -4.6530455, "tags": {"bus": "yes", "highway": "bus_stop", "name": "Castletown Square / The Parade", "public_transport": "platform", "ref": "615", "shelter": "yes", "shelter_type": "public_transport", "source": "survey"}}, {"type": "node", "id": 766863296, "lat": 54.0729671, "lon": -4.6532584, "tags": {"bus": "yes", "highway": "bus_stop", "name": "The Parade / Castletown Square", "public_transport": "platform", "ref": "616", "shelter": "yes", "shelter_type": "public_transport"}}, {"type": "node", "id": 827908802, "lat": 54.0806463, "lon": -4.6421925, "tags": {"bus": "yes", "highway": "bus_stop", "name": "King William's College", "public_transport": "platform", "ref": "603"}}, {"type": "node", "id": 827908910, "lat": 54.0791922, "lon": -4.643761, "tags": {"bus": "yes", "highway": "bus_stop", "name": "Janet's Corner Entrance", "public_transport": "platform", "ref": "605", "shelter": "yes"}}, {"type": "node", "id": 827908948, "lat": 54.0777081, "lon": -4.6493122, "tags": {"bus": "yes", "highway": "bus_stop", "name": "Castletown Station / Elizabeth Rise", "public_transport": "platform", "ref": "610"}}, {"type": "node", "id": 841383800, "lat": 54.0945213, "lon": -4.6298723, "tags": {"bus": "yes", "highway": "bus_stop", "name": "Meadow Court", "public_transport": "platform", "ref": "410", "source": "survey;Bing"}}, {"type": "node", "id": 841383804, "lat": 54.0941655, "lon": -4.6300065, "tags": {"bus": "yes", "highway": "bus_stop", "name": "The Sycamores", "public_transport": "platform", "ref": "409", "source": "survey;Bing"}}, {"type": "node", "id": 937630389, "lat": 54.1540829, "lon": -4.5395529, "tags": {"bus": "yes", "highway": "bus_stop", "name": "Cooil Crossroads", "public_transport": "platform", "ref": "1201", "shelter": "no"}}, {"type": "node", "id": 939199113, "lat": 54.1661036, "lon": -4.464772, "tags": {"bus": "yes", "highway": "bus_stop", "name": "Queen's Prom, Regency Hotel", "public_transport": "platform", "railway": "tram_stop", "request_stop": "yes", "tram": "yes"}}, {"type": "node", "id": 939423342, "lat": 54.1566381, "lon": -4.4773702, "tags": {"bus": "yes", "highway": "bus_stop", "name": "Harris Promenade / Villa Marina", "public_transport": "platform", "ref": "60007 / 20118", "shelter": "yes"}}, {"type": "node", "id": 939426298, "lat": 54.1587354, "lon": -4.4758746, "tags": {"bus": "yes", "highway": "bus_stop", "name": "Central Promenade / The Esplanade", "public_transport": "platform", "railway": "tram_stop", "ref": "119 / 60006", "request_stop": "yes", "shelter": "yes", "tram": "yes"}}, {"type": "node", "id": 939426651, "lat": 54.1587373, "lon": -4.4755567, "tags": {"bus": "yes", "highway": "bus_stop", "name": "Central Promenade / Esplanade Lane", "public_transport": "platform", "railway": "tram_stop", "ref": "60026 / 20117", "request_stop": "yes", "shelter": "yes", "tram": "yes"}}, {"type": "node", "id": 939428621, "lat": 54.1627495, "lon": -4.4709599, "tags": {"bus": "yes", "highway": "bus_stop", "name": "Queens Promenade / Palace Terrace", "public_transport": "platform", "railway": "tram_stop", "ref": "121", "request_stop": "yes", "shelter": "yes", "tram": "yes"}}, {"type": "node", "id": 942463419, "lat": 54.1641738, "lon": -4.4681436, "tags": {"bus": "yes", "highway": "bus_stop", "name": "Queens Promenade / Little Switzerland", "public_transport": "platform", "railway": "tram_stop", "ref": "20114", "request_stop": "yes", "tram": "yes"}}, {"type": "node", "id": 948933228, "lat": 54.1523317, "lon": -4.4782966, "tags": {"bus": "yes", "highway": "bus_stop", "name": "Loch Promenade, Granville Street", "public_transport": "platform", "ref": "00117"}}, {"type": "node", "id": 948933235, "lat": 54.1528126, "lon": -4.4781765, "tags": {"bus": "yes", "highway": "bus_stop", "name": "Loch Promenade", "public_transport": "platform", "ref": "20120"}}, {"type": "node", "id": 950922367, "lat": 54.2248471, "lon": -4.682807, "tags": {"bus": "yes", "highway": "bus_stop", "name": "Peveril Road / Ballaquane Junction", "public_transport": "platform", "ref": "2422", "shelter": "no"}}, {"type": "node", "id": 950922378, "lat": 54.224892, "lon": -4.6829921, "tags": {"bus": "yes", "highway": "bus_stop", "name": "Peveril Road Opposite Ballaquane Road Junction", "public_transport": "platform", "ref": "2421", "shelter": "no"}}, {"type": "node", "id": 951575052, "lat": 54.3805441, "lon": -4.3897221, "tags": {"bus": "yes", "fixme": "check ref and existence of stop on other side; stops combined onto shelter on eastern side", "highway": "bus_stop", "name": "Bride Hill Shelter", "public_transport": "platform", "ref": "4008", "shelter": "yes"}}, {"type": "node", "id": 951575169, "lat": 54.3139686, "lon": -4.3733943, "tags": {"bus": "yes", "highway": "bus_stop", "name": "Ballure / Merriweathers", "public_transport": "platform", "ref": "3809"}}, {"type": "node", "id": 951575202, "lat": 54.2498503, "lon": -4.3771566, "tags": {"bus": "yes", "highway": "bus_stop", "name": "Dhoon Glen Cafe", "operator": "Bus Vannin", "public_transport": "platform", "ref": "3602", "shelter": "yes"}}, {"type": "node", "id": 960876937, "lat": 54.1639252, "lon": -4.4840786, "tags": {"bus": "yes", "highway": "bus_stop", "name": "Somerset Road / St. Ninian's", "public_transport": "platform", "ref": "147"}}, {"type": "node", "id": 962491065, "lat": 54.0823335, "lon": -4.6405216, "tags": {"bus": "yes", "highway": "bus_stop", "name": "Brookfields Avenue Entrance", "public_transport": "platform", "ref": "602"}}, {"type": "node", "id": 962491066, "lat": 54.0823742, "lon": -4.6402926, "tags": {"bus": "yes", "highway": "bus_stop", "name": "Opposite Brookfields Avenue", "public_transport": "platform", "ref": "601"}}, {"type": "node", "id": 962512427, "lat": 54.0781273, "lon": -4.6458086, "tags": {"bus": "yes", "highway": "bus_stop", "name": "Victoria Road / New Estate", "public_transport": "platform", "ref": "608"}}, {"type": "node", "id": 962512431, "lat": 54.0780269, "lon": -4.6458257, "tags": {"bus": "yes", "highway": "bus_stop", "name": "Victoria Road / Bowling Green Road", "public_transport": "platform", "ref": "607"}}, {"type": "node", "id": 962512433, "lat": 54.0767305, "lon": -4.6511649, "tags": {"bus": "yes", "highway": "bus_stop", "name": "Victoria Road Riverside", "public_transport": "platform", "ref": "612"}}, {"type": "node", "id": 962512472, "lat": 54.0770135, "lon": -4.6506807, "tags": {"bus": "yes", "highway": "bus_stop", "name": "Victoria Road Primary School", "public_transport": "platform", "ref": "611"}}, {"type": "node", "id": 962512474, "lat": 54.0766558, "lon": -4.6628576, "tags": {"bus": "yes", "highway": "bus_stop", "name": "Red Gapp / Royal Life", "public_transport": "platform", "ref": "621"}}, {"type": "node", "id": 962512483, "lat": 54.0777761, "lon": -4.6632697, "tags": {"bus": "yes", "highway": "bus_stop", "name": "Ballalough Shelter", "public_transport": "platform", "ref": "622", "shelter": "yes"}}, {"type": "node", "id": 962512484, "lat": 54.074984, "lon": -4.6594539, "tags": {"bus": "yes", "highway": "bus_stop", "name": "Arbory Road / Buchan School", "public_transport": "platform", "ref": "620"}}, {"type": "node", "id": 962512487, "lat": 54.0754396, "lon": -4.6609146, "tags": {"bus": "yes", "highway": "bus_stop", "name": "Castle Rushen High School", "public_transport": "platform", "ref": "619"}}, {"type": "node", "id": 962512488, "lat": 54.073846, "lon": -4.6580617, "tags": {"bus": "yes", "highway": "bus_stop", "name": "Farrants Way / Kissack Road", "public_transport": "platform", "ref": "617"}}, {"type": "node", "id": 962512491, "lat": 54.0738119, "lon": -4.6567412, "tags": {"bus": "yes", "highway": "bus_stop", "name": "Farrants Way / Shoprite", "public_transport": "platform", "ref": "618"}}, {"type": "node", "id": 962512493, "lat": 54.0753487, "lon": -4.6524224, "tags": {"bus": "yes", "highway": "bus_stop", "name": "Victoria Road / Thirtle Bridge", "public_transport": "platform", "ref": "614"}}, {"type": "node", "id": 962512494, "lat": 54.0753117, "lon": -4.6522858, "tags": {"bus": "yes", "highway": "bus_stop", "name": "Victoria Road / Brewery Wharf", "public_transport": "platform", "ref": "613"}}, {"type": "node", "id": 962512507, "lat": 54.0780901, "lon": -4.664195, "tags": {"bus": "yes", "highway": "bus_stop", "name": "Ballalough Estate", "public_transport": "platform", "ref": "623"}}, {"type": "node", "id": 1069288727, "lat": 54.1604013, "lon": -4.4823405, "tags": {"bench": "yes", "bus": "yes", "highway": "bus_stop", "name": "York Road / Waverley Court Shelter", "operator": "Bus Vannin", "public_transport": "platform", "ref": "20145", "shelter": "yes"}}, {"type": "node", "id": 1069288886, "lat": 54.1645066, "lon": -4.4850393, "tags": {"bus": "yes", "highway": "bus_stop", "public_transport": "platform", "shelter": "no"}}, {"type": "node", "id": 1069323556, "lat": 54.1585926, "lon": -4.4798397, "tags": {"bus": "yes", "highway": "bus_stop", "name": "Ballaquayle Road Rose Garden", "public_transport": "platform", "ref": "125"}}, {"type": "node", "id": 1069461316, "lat": 54.1692825, "lon": -4.6351272, "tags": {"bus": "yes", "highway": "bus_stop", "name": "Higher Foxdale Industrial Estate", "public_transport": "platform", "ref": "1501"}}, {"type": "node", "id": 1069461330, "lat": 54.1672926, "lon": -4.6097484, "tags": {"bus": "yes", "highway": "bus_stop", "name": "Eairy Dam Shelter", "public_transport": "platform", "ref": "1401"}}, {"type": "node", "id": 1195573091, "lat": 54.0778945, "lon": -4.6491233, "tags": {"bus": "yes", "highway": "bus_stop", "name": "Castletown Station / The Sidings", "public_transport": "platform", "ref": "609"}}, {"type": "node", "id": 1195573097, "lat": 54.0966516, "lon": -4.6298761, "tags": {"bus": "yes", "highway": "bus_stop", "name": "Ballasalla Station / The Paddocks", "public_transport": "platform", "ref": "407"}}, {"type": "node", "id": 1195573100, "lat": 54.0959678, "lon": -4.6297383, "tags": {"bus": "yes", "highway": "bus_stop", "name": "Ballasalla Station / Silverburn Estate", "public_transport": "platform", "ref": "408"}}, {"type": "node", "id": 1195573103, "lat": 54.0994264, "lon": -4.6247347, "tags": {"bus": "yes", "highway": "bus_stop", "name": "Opposite Whitestone Garage", "public_transport": "platform", "ref": "403"}}, {"type": "node", "id": 1195573114, "lat": 54.1074313, "lon": -4.6062729, "tags": {"bus": "yes", "highway": "bus_stop", "name": "Orrisdale Road", "public_transport": "platform", "ref": "10403"}}, {"type": "node", "id": 1195573117, "lat": 54.1481936, "lon": -4.481873, "tags": {"bench": "yes", "bin": "yes", "bus": "yes", "highway": "bus_stop", "lit": "yes", "name": "Lord Street, Hanover House", "public_transport": "platform", "ref": "109", "shelter": "yes", "tactile_paving": "no"}}, {"type": "node", "id": 1195573119, "lat": 54.0790847, "lon": -4.6441274, "tags": {"bus": "yes", "highway": "bus_stop", "name": "Janet's Corner Garage", "public_transport": "platform", "ref": "606", "shelter": "yes"}}, {"type": "node", "id": 1195573125, "lat": 54.1457522, "lon": -4.5219507, "tags": {"bus": "yes", "highway": "bus_stop", "name": "Four Roads shelter, Anagh Coar", "public_transport": "platform", "ref": "10305", "shelter": "yes"}}, {"type": "node", "id": 1196357082, "lat": 54.1308126, "lon": -4.5661482, "tags": {"bus": "yes", "highway": "bus_stop", "public_transport": "platform", "shelter": "yes", "source": "Isle of Man Government aerial imagery (2001)"}}, {"type": "node", "id": 1196357084, "lat": 54.1373343, "lon": -4.5567645, "tags": {"bus": "yes", "highway": "bus_stop", "name": "The Forge", "public_transport": "platform", "ref": "305", "source": "Isle of Man Government aerial imagery (2001)"}}, {"type": "node", "id": 1196357098, "lat": 54.1375399, "lon": -4.556465, "tags": {"bus": "yes", "highway": "bus_stop", "name": "The Forge Shelter", "public_transport": "platform", "ref": "304", "shelter": "yes", "source": "Isle of Man Government aerial imagery (2001)"}}, {"type": "node", "id": 1196357105, "lat": 54.1238231, "lon": -4.573897, "tags": {"bus": "yes", "highway": "bus_stop", "name": "Brown Cow Hill Layby", "public_transport": "platform", "ref": "310", "source": "Isle of Man Government aerial imagery (2001)"}}, {"type": "node", "id": 1196357107, "lat": 54.1236849, "lon": -4.5738252, "tags": {"bench": "no", "bin": "no", "bus": "yes", "highway": "bus_stop", "name": "Brown Cow Hill / Mann Cat Sanctuary", "public_transport": "platform", "ref": "311", "shelter": "no", "source": "Isle of Man Government aerial imagery (2001)"}}, {"type": "node", "id": 1202344781, "lat": 54.0920091, "lon": -4.7414965, "tags": {"bus": "yes", "highway": "bus_stop", "name": "Ballafesson Road", "public_transport": "platform", "ref": "11905", "shelter": "yes"}}, {"type": "node", "id": 1202344864, "lat": 54.0921474, "lon": -4.7416213, "tags": {"bus": "yes", "highway": "bus_stop", "name": "Ballafesson Farm", "public_transport": "platform", "ref": "11904", "shelter": "yes"}}, {"type": "node", "id": 1287783131, "lat": 54.1955189, "lon": -4.6361348, "tags": {"bus": "yes", "highway": "bus_stop", "name": "St. John's / The Hope", "public_transport": "platform", "ref": "2303", "shelter": "yes"}}, {"type": "node", "id": 1498453873, "lat": 54.1520977, "lon": -4.5047247, "tags": {"bus": "yes", "highway": "bus_stop", "name": "National Sports Centre Layby", "public_transport": "platform", "ref": "206"}}, {"type": "node", "id": 1638215285, "lat": 54.2224176, "lon": -4.6909313, "tags": {"bus": "yes", "highway": "bus_stop", "name": "Peel Town Hall", "public_transport": "platform", "ref": "2414", "shelter": "yes"}}, {"type": "node", "id": 1711905186, "lat": 54.0927911, "lon": -4.763392, "tags": {"bus": "yes", "highway": "bus_stop", "name": "Bradda West", "public_transport": "platform", "ref": "814"}}, {"type": "node", "id": 1740421812, "lat": 54.0636622, "lon": -4.7924573, "tags": {"bus": "yes", "highway": "bus_stop", "name": "The Sound", "public_transport": "platform", "ref": "1005"}}, {"type": "node", "id": 1748089610, "lat": 54.1497583, "lon": -4.5158873, "tags": {"bus": "yes", "highway": "bus_stop", "name": "Anagh Coar entrance, shelter / Castletown Road", "public_transport": "platform", "ref": "10302", "shelter": "yes"}}, {"type": "node", "id": 1748089611, "lat": 54.1497589, "lon": -4.5155096, "tags": {"bus": "yes", "highway": "bus_stop", "name": "Anagh Coar entrance / Castletown Road", "public_transport": "platform", "ref": "10301", "shelter": "no"}}, {"type": "node", "id": 1786357117, "lat": 54.0708425, "lon": -4.7659408, "tags": {"bus": "yes", "highway": "bus_stop", "name": "Cregneash Car Park", "public_transport": "platform", "ref": "1004"}}, {"type": "node", "id": 1807987361, "lat": 54.1645485, "lon": -4.4834511, "tags": {"bus": "yes", "highway": "bus_stop", "name": "Ballaquayle Road / St. Ninian's Shelter", "public_transport": "platform", "ref": "20123", "shelter": "yes"}}, {"type": "node", "id": 1807987363, "lat": 54.1646486, "lon": -4.4837588, "tags": {"bus": "yes", "highway": "bus_stop", "name": "Ballaquayle Road / St. Ninian's Road", "public_transport": "platform", "ref": "127", "shelter": "no"}}, {"type": "node", "id": 1830297834, "lat": 54.1181394, "lon": -4.5876352, "tags": {"bus": "yes", "highway": "bus_stop", "name": "Santon Railway Station Towards Douglas", "public_transport": "platform", "ref": "314"}}, {"type": "node", "id": 1830297837, "lat": 54.1187287, "lon": -4.5861318, "tags": {"bus": "yes", "highway": "bus_stop", "name": "Santon Railway Station Towards Castletown", "public_transport": "platform", "ref": "315"}}, {"type": "node", "id": 1830297853, "lat": 54.1392426, "lon": -4.5504475, "tags": {"bus": "yes", "highway": "bus_stop", "public_transport": "platform"}}, {"type": "node", "id": 1830297857, "lat": 54.1403964, "lon": -4.5461122, "tags": {"bus": "yes", "highway": "bus_stop", "name": "Rosehill Farm", "public_transport": "platform", "ref": "303"}}, {"type": "node", "id": 1830297863, "lat": 54.141293, "lon": -4.5414991, "tags": {"bus": "yes", "highway": "bus_stop", "name": "Horses Home Northbound", "public_transport": "platform", "ref": "302"}}, {"type": "node", "id": 1830297866, "lat": 54.1412035, "lon": -4.5394913, "tags": {"bus": "yes", "highway": "bus_stop", "name": "Horses Home Southbound", "public_transport": "platform", "ref": "301"}}, {"type": "node", "id": 1830297876, "lat": 54.1479226, "lon": -4.5185768, "tags": {"bus": "yes", "highway": "bus_stop", "name": "Opposite Hampton Farm Estate", "public_transport": "platform", "ref": "10304"}}, {"type": "node", "id": 1830297877, "lat": 54.1481392, "lon": -4.5180201, "tags": {"bus": "yes", "highway": "bus_stop", "name": "Hampton Farm Estate, layby", "public_transport": "platform", "ref": "10303"}}, {"type": "node", "id": 1830297878, "lat": 54.1519381, "lon": -4.5113743, "tags": {"bus": "yes", "highway": "bus_stop", "name": "New Casteletown Road", "public_transport": "platform", "shelter": "yes"}}, {"type": "node", "id": 1830297879, "lat": 54.1579993, "lon": -4.5152127, "tags": {"bin": "yes", "bus": "yes", "highway": "bus_stop", "name": "Meadow Crescent No.6", "public_transport": "platform", "ref": "1606", "shelter": "yes"}}, {"type": "node", "id": 1830297880, "lat": 54.1604074, "lon": -4.5041231, "tags": {"bus": "yes", "highway": "bus_stop", "name": "Braddan Bridge / Douglas Road Layby", "operator": "Bus Vannin", "public_transport": "platform", "ref": "1702", "shelter": "no"}}, {"type": "node", "id": 1830297908, "lat": 54.1704436, "lon": -4.5274629, "tags": {"bus": "yes", "highway": "bus_stop", "network": "1904", "public_transport": "platform", "ref": "Trollaby Junction"}}, {"type": "node", "id": 1830297913, "lat": 54.1705694, "lon": -4.5281222, "tags": {"bus": "yes", "highway": "bus_stop", "name": "Trollaby Lane", "public_transport": "platform", "ref": "1903"}}, {"type": "node", "id": 1830297915, "lat": 54.1728086, "lon": -4.5435789, "tags": {"bus": "yes", "highway": "bus_stop", "name": "Glen Lough", "public_transport": "platform", "ref": "2002"}}, {"type": "node", "id": 1830297916, "lat": 54.1761137, "lon": -4.5528209, "tags": {"bus": "yes", "highway": "bus_stop", "public_transport": "platform"}}, {"type": "node", "id": 1830297918, "lat": 54.1847732, "lon": -4.5680363, "tags": {"bus": "yes", "highway": "bus_stop", "name": "Crosby Hotel", "public_transport": "platform", "ref": "2106"}}, {"type": "node", "id": 1830297925, "lat": 54.1862613, "lon": -4.5719736, "tags": {"bus": "yes", "highway": "bus_stop", "name": "Ballavitchell Farm Entrance", "public_transport": "platform", "ref": "2107"}}, {"type": "node", "id": 1830297937, "lat": 54.190333, "lon": -4.5817958, "tags": {"bus": "yes", "highway": "bus_stop", "name": "The Highlander", "public_transport": "platform", "ref": "2201", "shelter": "no"}}, {"type": "node", "id": 1830297943, "lat": 54.197701, "lon": -4.6155171, "tags": {"bus": "yes", "highway": "bus_stop", "name": "Kerrowgarrow Road Junction", "public_transport": "platform", "ref": "2209"}}, {"type": "node", "id": 1830297945, "lat": 54.2021653, "lon": -4.6278926, "tags": {"bus": "yes", "highway": "bus_stop", "name": "Ballacraine / Curragh Road", "public_transport": "platform", "ref": "2301"}}, {"type": "node", "id": 1967582955, "lat": 54.1689554, "lon": -4.4973778, "tags": {"bus": "yes", "highway": "bus_stop", "name": "Cronkbourne Viiage No.12", "public_transport": "platform", "ref": "13107", "shelter": "yes"}}, {"type": "node", "id": 2382824420, "lat": 54.1301523, "lon": -4.5387613, "tags": {"bus": "yes", "highway": "bus_stop", "name": "Old Castletown Road Shelter", "public_transport": "platform", "ref": "12904", "source": "Bing"}}, {"type": "node", "id": 2388000717, "lat": 54.1839577, "lon": -4.5660993, "tags": {"bench": "yes", "bus": "yes", "highway": "bus_stop", "name": "Crosby Shelter", "public_transport": "platform", "ref": "2104", "shelter": "yes", "source": "survey"}}, {"type": "node", "id": 2651176721, "lat": 54.1009411, "lon": -4.6208214, "tags": {"bus": "yes", "highway": "bus_stop", "name": "Glashen Close Entrance", "public_transport": "platform", "ref": "402", "source": "Bing;survey;"}}, {"type": "node", "id": 2651176722, "lat": 54.1008278, "lon": -4.6208065, "tags": {"bus": "yes", "highway": "bus_stop", "name": "Glashen Close", "public_transport": "platform", "ref": "401", "shelter": "yes", "source": "Bing;survey;"}}, {"type": "node", "id": 2651176723, "lat": 54.1049012, "lon": -4.6123413, "tags": {"bus": "yes", "highway": "bus_stop", "name": "Glashen Garey", "public_transport": "platform", "ref": "10408", "source": "Bing;survey;"}}, {"type": "node", "id": 2651176724, "lat": 54.1148239, "lon": -4.594902, "tags": {"bus": "yes", "highway": "bus_stop", "name": "Ballalonna Farm Entrance", "public_transport": "platform", "ref": "10402", "source": "GPS;survey;"}}, {"type": "node", "id": 2651176725, "lat": 54.1153728, "lon": -4.5936919, "tags": {"bus": "yes", "highway": "bus_stop", "public_transport": "platform", "source": "GPS;survey;"}}, {"type": "node", "id": 2955656043, "lat": 54.2206467, "lon": -4.6906251, "tags": {"bench": "no", "bin": "no", "bus": "yes", "highway": "bus_stop", "name": "Albany Road\u2013Tynwald Road Junction", "public_transport": "platform", "ref": "2427", "shelter": "no", "wheelchair": "yes"}}, {"type": "node", "id": 2955656047, "lat": 54.2209997, "lon": -4.6774939, "tags": {"bench": "no", "bin": "no", "bus": "yes", "highway": "bus_stop", "lit": "yes", "name": "Ballawattleworth / The Highwayman", "public_transport": "platform", "ref": "2430", "shelter": "yes", "source": "survey", "tactile_paving": "no"}}, {"type": "node", "id": 2955656058, "lat": 54.2226051, "lon": -4.6762189, "tags": {"bus": "yes", "highway": "bus_stop", "name": "Ballawattleworth / Oak Road", "public_transport": "platform", "ref": "2429", "source": "survey"}}, {"type": "node", "id": 2955656060, "lat": 54.225942, "lon": -4.6789604, "tags": {"bus": "yes", "highway": "bus_stop", "name": "Belle Vue Junction", "public_transport": "platform", "ref": "2424", "source": "survey"}}, {"type": "node", "id": 2955656061, "lat": 54.2260461, "lon": -4.6789354, "tags": {"bus": "yes", "highway": "bus_stop", "name": "Opposite Belle Vue", "public_transport": "platform", "ref": "2423", "source": "survey"}}, {"type": "node", "id": 2955656064, "lat": 54.2271874, "lon": -4.6756082, "tags": {"bus": "yes", "highway": "bus_stop", "name": "Reayrt Aalin Towards Ramsey", "public_transport": "platform", "ref": "2425", "source": "survey"}}, {"type": "node", "id": 3683451916, "lat": 54.0780257, "lon": -4.7398375, "tags": {"bus": "yes", "highway": "bus_stop", "name": "Port St Mary Promenade", "public_transport": "platform", "ref": "903"}}, {"type": "node", "id": 3683451917, "lat": 54.07811, "lon": -4.7401501, "tags": {"bus": "yes", "highway": "bus_stop", "name": "Port St Mary School", "public_transport": "platform", "ref": "904"}}, {"type": "node", "id": 3683822929, "lat": 54.0841445, "lon": -4.7268519, "tags": {"bus": "yes", "highway": "bus_stop", "name": "Gansey Opposite Avondale", "public_transport": "platform", "ref": "11803"}}, {"type": "node", "id": 3683858707, "lat": 54.085167, "lon": -4.7536819, "tags": {"bus": "yes", "highway": "bus_stop", "name": "Station Road Shelter", "public_transport": "platform", "ref": "804"}}, {"type": "node", "id": 3683858708, "lat": 54.0853195, "lon": -4.7537248, "tags": {"bus": "yes", "highway": "bus_stop", "public_transport": "platform"}}, {"type": "node", "id": 3684680318, "lat": 54.0715989, "lon": -4.7376652, "tags": {"bus": "yes", "highway": "bus_stop", "name": "Port St. Mary Harbour", "public_transport": "platform", "ref": "909"}}, {"type": "node", "id": 3685799330, "lat": 54.0727286, "lon": -4.7394048, "tags": {"bus": "yes", "highway": "bus_stop", "name": "Park Road", "public_transport": "platform", "ref": "907"}}, {"type": "node", "id": 3685802083, "lat": 54.1124255, "lon": -4.5985958, "tags": {"bus": "yes", "highway": "bus_stop", "public_transport": "platform"}}, {"type": "node", "id": 3686497917, "lat": 54.0972535, "lon": -4.6761746, "tags": {"bus": "yes", "highway": "bus_stop", "name": "Ballabeg, Duck Street", "public_transport": "platform", "ref": "706"}}, {"type": "node", "id": 3686497918, "lat": 54.0990711, "lon": -4.6778751, "tags": {"bus": "yes", "highway": "bus_stop", "name": "Friary Park", "public_transport": "platform", "ref": "708"}}, {"type": "node", "id": 3686497919, "lat": 54.0967799, "lon": -4.6758469, "tags": {"bus": "yes", "highway": "bus_stop", "name": "Ballabeg Three Roads", "public_transport": "platform", "ref": "705"}}, {"type": "node", "id": 3686501612, "lat": 54.1512073, "lon": -4.5289128, "tags": {"bus": "yes", "highway": "bus_stop", "name": "Spring Valley Industrial Estate / B & Q", "public_transport": "platform", "ref": "1109"}}, {"type": "node", "id": 3686503799, "lat": 54.0961144, "lon": -4.7052545, "tags": {"bus": "yes", "highway": "bus_stop", "name": "Colby Methodist Church", "public_transport": "platform", "ref": "10703", "shelter": "yes"}}, {"type": "node", "id": 3686503800, "lat": 54.0963077, "lon": -4.6980531, "tags": {"bus": "yes", "highway": "bus_stop", "name": "Cronk-Y-Thatcher", "public_transport": "platform", "ref": "10702"}}, {"type": "node", "id": 3686503801, "lat": 54.091561, "lon": -4.7258239, "tags": {"bus": "yes", "highway": "bus_stop", "name": "Opposite Carrick Bay View", "public_transport": "platform", "ref": "10711"}}, {"type": "node", "id": 3686505094, "lat": 54.0838832, "lon": -4.743999, "tags": {"bus": "yes", "highway": "bus_stop", "name": "Four Roads / Holmcroft", "public_transport": "platform", "ref": "809"}}, {"type": "node", "id": 3686505242, "lat": 54.0904501, "lon": -4.7445517, "tags": {"bus": "yes", "highway": "bus_stop", "name": "Barrack Road Junction", "public_transport": "platform", "ref": "11907"}}, {"type": "node", "id": 3686505243, "lat": 54.0914334, "lon": -4.7433527, "tags": {"bus": "yes", "highway": "bus_stop", "public_transport": "platform"}}, {"type": "node", "id": 3686505244, "lat": 54.0885464, "lon": -4.7478101, "tags": {"bus": "yes", "highway": "bus_stop", "name": "Ponyfields Entrance", "public_transport": "platform", "ref": "801"}}, {"type": "node", "id": 3686505245, "lat": 54.0867278, "lon": -4.7500632, "tags": {"bus": "yes", "highway": "bus_stop", "name": "Marashen Crescent", "public_transport": "platform", "ref": "802"}}, {"type": "node", "id": 3686505246, "lat": 54.0846229, "lon": -4.7461286, "tags": {"bus": "yes", "highway": "bus_stop", "name": "Southlands", "public_transport": "platform", "ref": "808"}}, {"type": "node", "id": 3686505859, "lat": 54.0996993, "lon": -4.6823002, "tags": {"bus": "yes", "highway": "bus_stop", "name": "Vicarage Close", "public_transport": "platform", "ref": "712"}}, {"type": "node", "id": 3686505860, "lat": 54.1005612, "lon": -4.6797899, "tags": {"bus": "yes", "highway": "bus_stop", "name": "Ballabeg Hall", "public_transport": "platform", "ref": "710"}}, {"type": "node", "id": 3690073508, "lat": 54.073787, "lon": -4.7386634, "tags": {"bus": "yes", "highway": "bus_stop", "name": "High Street", "public_transport": "platform", "ref": "910"}}, {"type": "node", "id": 3690075643, "lat": 54.096278, "lon": -4.7051124, "tags": {"bus": "yes", "highway": "bus_stop", "name": "Colby Bridge Shelter", "public_transport": "platform", "ref": "10704", "shelter": "yes"}}, {"type": "node", "id": 3690075644, "lat": 54.095618, "lon": -4.7105486, "tags": {"bus": "yes", "highway": "bus_stop", "name": "Belle Abbey Chapel", "public_transport": "platform", "ref": "10706"}}, {"type": "node", "id": 3690083404, "lat": 54.1502271, "lon": -4.4947543, "tags": {"bus": "yes", "highway": "bus_stop", "name": "Hills Meadow", "public_transport": "platform", "shelter": "yes"}}, {"type": "node", "id": 3690083406, "lat": 54.1530561, "lon": -4.5079023, "tags": {"bus": "yes", "highway": "bus_stop", "name": "Groves Road / Springfield Avenue", "public_transport": "platform", "ref": "207"}}, {"type": "node", "id": 3690083407, "lat": 54.1505793, "lon": -4.4997497, "tags": {"bus": "yes", "highway": "bus_stop", "name": "Pulrose Bridge Shelter", "network": "Bus Vannin", "public_transport": "platform", "ref": "20168", "shelter": "yes"}}, {"type": "node", "id": 3690084686, "lat": 54.0849407, "lon": -4.7206345, "tags": {"bus": "yes", "highway": "bus_stop", "name": "Opposite Shore Hotel", "public_transport": "platform", "ref": "11801"}}, {"type": "node", "id": 3702595482, "lat": 54.3598157, "lon": -4.5213714, "tags": {"bus": "yes", "highway": "bus_stop", "name": "Jurby Parade Ground", "public_transport": "platform", "ref": "4204"}}, {"type": "node", "id": 3702595483, "lat": 54.3570907, "lon": -4.5292785, "tags": {"bus": "yes", "highway": "bus_stop", "name": "Jurby Prison Shelter", "public_transport": "platform", "ref": "4213", "shelter": "yes"}}, {"type": "node", "id": 3732646867, "lat": 54.0845162, "lon": -4.7461865, "tags": {"bus": "yes", "highway": "bus_stop", "name": "Rheyrt-Y-Chirk", "public_transport": "platform", "ref": "811", "shelter": "yes"}}, {"type": "node", "id": 3732646875, "lat": 54.0784265, "lon": -4.7411319, "tags": {"bus": "yes", "highway": "bus_stop", "name": "Plantation Road", "public_transport": "platform", "ref": "911"}}, {"type": "node", "id": 3732747935, "lat": 54.1528158, "lon": -4.5356665, "tags": {"bus": "yes", "highway": "bus_stop", "name": "Cooil Road Roundabout", "public_transport": "platform", "ref": "1104"}}, {"type": "node", "id": 3732747937, "lat": 54.1507211, "lon": -4.5305923, "tags": {"bus": "yes", "highway": "bus_stop", "name": "Cooil Road / B & Q", "public_transport": "platform", "ref": "1106", "shelter": "yes"}}, {"type": "node", "id": 3732769883, "lat": 54.1505585, "lon": -4.4837286, "tags": {"bus": "yes", "highway": "bus_stop", "name": "No.17 Circular Road", "public_transport": "platform", "ref": "148"}}, {"type": "node", "id": 3732769884, "lat": 54.1493241, "lon": -4.4781659, "tags": {"bus": "yes", "highway": "bus_stop", "name": "Victoria Street", "public_transport": "platform", "ref": "20108", "shelter": "no"}}, {"type": "node", "id": 3732769885, "lat": 54.1493676, "lon": -4.4873114, "tags": {"bus": "yes", "highway": "bus_stop", "public_transport": "platform"}}, {"type": "node", "id": 3732769886, "lat": 54.1485571, "lon": -4.4805656, "tags": {"bus": "yes", "highway": "bus_stop", "name": "Douglas Ridgeway Street", "public_transport": "platform", "ref": "128"}}, {"type": "node", "id": 3732769887, "lat": 54.1475031, "lon": -4.4862385, "tags": {"bus": "yes", "highway": "bus_stop", "name": "Bank's Circus", "operator": "Bus Vannin", "public_transport": "platform", "ref": "101"}}, {"type": "node", "id": 3732769888, "lat": 54.1509886, "lon": -4.4776986, "tags": {"bus": "yes", "highway": "bus_stop", "name": "Regent Street", "public_transport": "platform"}}, {"type": "node", "id": 3732769889, "lat": 54.1499339, "lon": -4.4772603, "tags": {"bus": "yes", "highway": "bus_stop", "name": "Loch Promenade", "public_transport": "platform", "ref": "F", "route_ref": "1;1H;2;2A;2C;3;11;13;26C", "shelter": "yes"}}, {"type": "node", "id": 3732769890, "lat": 54.1479837, "lon": -4.4842885, "tags": {"bench": "no", "bin": "yes", "bus": "yes", "highway": "bus_stop", "lit": "yes", "name": "Clinch's House Lord Street", "public_transport": "platform", "ref": "110", "shelter": "no", "tactile_paving": "no"}}, {"type": "node", "id": 3732769891, "lat": 54.1496959, "lon": -4.4909029, "tags": {"bench": "yes", "bin": "yes", "bus": "yes", "departures_board": "timetable", "highway": "bus_stop", "name": "Peel Road Brown Bobby", "operator": "Bus Vannin", "public_transport": "platform", "ref": "111", "shelter": "yes", "tactile_paving": "no"}}, {"type": "node", "id": 3732769892, "lat": 54.1507277, "lon": -4.4837378, "tags": {"bus": "yes", "highway": "bus_stop", "name": "Capital House / Circular Road", "public_transport": "platform", "ref": "20106"}}, {"type": "node", "id": 3732769893, "lat": 54.1495351, "lon": -4.4862467, "tags": {"bench": "no", "bin": "yes", "bus": "yes", "highway": "bus_stop", "name": "Circular Road / Hillside Avenue", "public_transport": "platform", "ref": "20162", "shelter": "no"}}, {"type": "node", "id": 4000936757, "lat": 54.0882702, "lon": -4.7484996, "tags": {"bench": "no", "bus": "yes", "covered": "no", "highway": "bus_stop", "name": "Opposite Ponyfields", "public_transport": "platform", "ref": "813", "shelter": "no"}}, {"type": "node", "id": 4031782003, "lat": 54.0955022, "lon": -4.7106146, "tags": {"bus": "yes", "highway": "bus_stop", "name": "Opposite Belle Abbey Chapel", "public_transport": "platform", "ref": "10705"}}, {"type": "node", "id": 4142689500, "lat": 54.3205657, "lon": -4.3849157, "tags": {"bus": "yes", "highway": "bus_stop", "public_transport": "platform"}}, {"type": "node", "id": 4142773579, "lat": 54.3161559, "lon": -4.5123854, "tags": {"bus": "yes", "highway": "bus_stop", "name": "Wildlife Park (NE & SW bound)", "note": "Served in both directions, SW-bound buses do a clockwise loop via the car park service road", "public_transport": "platform", "ref": "2801"}}, {"type": "node", "id": 4144258832, "lat": 54.1476146, "lon": -4.4858494, "tags": {"bus": "yes", "highway": "bus_stop", "name": "Bank's Circus", "public_transport": "platform", "shelter": "yes"}}, {"type": "node", "id": 4342246155, "lat": 54.2499252, "lon": -4.3774775, "tags": {"bench": "yes", "bus": "yes", "highway": "bus_stop", "name": "Dhoon Glen Car Park Shelter", "operator": "Bus Vannin", "public_transport": "platform", "ref": "3601", "shelter": "yes"}}, {"type": "node", "id": 4350374441, "lat": 54.1642977, "lon": -4.7389687, "tags": {"bus": "yes", "highway": "bus_stop", "name": "Niarbyl", "public_transport": "platform", "ref": "7401"}}, {"type": "node", "id": 4429405084, "lat": 54.1724938, "lon": -4.506117, "tags": {"bus": "yes", "highway": "bus_stop", "name": "Nobles Hospital Eastbound", "public_transport": "platform", "ref": "1801"}}, {"type": "node", "id": 4753512042, "lat": 54.1605765, "lon": -4.482606, "tags": {"bench": "no", "bus": "yes", "highway": "bus_stop", "name": "York Road", "operator": "Bus Vannin", "public_transport": "platform", "ref": "153", "shelter": "no"}}, {"type": "node", "id": 5682302538, "lat": 54.1526479, "lon": -4.483891, "tags": {"bench": "no", "bus": "yes", "highway": "bus_stop", "lit": "no", "name": "Buck Road / Christian Road", "public_transport": "platform", "ref": "20129", "shelter": "no"}}, {"type": "node", "id": 6592082522, "lat": 54.1539619, "lon": -4.4781607, "tags": {"bus": "yes", "highway": "bus_stop", "name": "Harris Promenade / Gaiety Theatre / The Rendezvous", "public_transport": "platform", "ref": "60008 / 20119"}}, {"type": "node", "id": 6597029434, "lat": 54.2127891, "lon": -4.4067298, "tags": {"bus": "yes", "highway": "bus_stop", "name": "Ballabeg Farm", "public_transport": "platform", "ref": "3317"}}, {"type": "node", "id": 6597037636, "lat": 54.0923367, "lon": -4.7212546, "tags": {"bus": "yes", "highway": "bus_stop", "name": "The Level / Croit-E-Caley Junction", "public_transport": "platform", "ref": "10709"}}, {"type": "node", "id": 6597046184, "lat": 54.1664085, "lon": -4.4509427, "tags": {"bus": "yes", "highway": "bus_stop", "name": "King Edward Road / Seacliffe Road", "public_transport": "platform", "ref": "13302"}}, {"type": "node", "id": 6597047651, "lat": 54.0688738, "lon": -4.7755962, "tags": {"bus": "yes", "highway": "bus_stop", "name": "Arraghey", "public_transport": "platform"}}, {"type": "node", "id": 6737245041, "lat": 54.1520876, "lon": -4.5052099, "tags": {"bus": "yes", "highway": "bus_stop", "name": "Groves Road / National Sports Centre", "public_transport": "platform", "ref": "205"}}, {"type": "node", "id": 6737245051, "lat": 54.1669019, "lon": -4.4607556, "tags": {"bus": "yes", "highway": "bus_stop", "name": "Derby Castle MER Station", "network": "Bus Vannin", "operator": "Isle Of Man Transport", "public_transport": "platform", "railway": "tram_stop", "ref": "124", "request_stop": "yes", "tram": "yes"}}, {"type": "node", "id": 6737245052, "lat": 54.1676991, "lon": -4.4515607, "tags": {"bus": "yes", "highway": "bus_stop", "name": "Port Jack Towards Onchan", "public_transport": "platform", "ref": "3226"}}, {"type": "node", "id": 6737245054, "lat": 54.1673498, "lon": -4.4519372, "tags": {"bus": "yes", "highway": "bus_stop", "name": "Port Jack Shelter", "public_transport": "platform", "ref": "3211 / 3227", "shelter": "yes"}}, {"type": "node", "id": 6737245055, "lat": 54.1707594, "lon": -4.4533776, "tags": {"bus": "yes", "highway": "bus_stop", "name": "Royal Avenue / Alberta Drive", "public_transport": "platform", "ref": "3217"}}, {"type": "node", "id": 6737245064, "lat": 54.1786789, "lon": -4.4784335, "tags": {"bus": "yes", "highway": "bus_stop", "name": "Cronk-Y-Berry School", "public_transport": "platform", "ref": "13402"}}, {"type": "node", "id": 6737245065, "lat": 54.1789553, "lon": -4.4783396, "tags": {"bus": "yes", "highway": "bus_stop", "name": "The Cat With No Tail", "public_transport": "platform", "ref": "13401", "shelter": "yes"}}, {"type": "node", "id": 6737245069, "lat": 54.1689506, "lon": -4.4968133, "tags": {"bus": "yes", "highway": "bus_stop", "name": "Cronkbourne Shelter", "public_transport": "platform", "ref": "13108"}}, {"type": "node", "id": 6737245071, "lat": 54.1727949, "lon": -4.5117287, "tags": {"bus": "yes", "highway": "bus_stop", "name": "Strang Crossroads Postbox", "public_transport": "platform", "ref": "1807"}}, {"type": "node", "id": 6737245072, "lat": 54.1726843, "lon": -4.5114166, "tags": {"bus": "yes", "highway": "bus_stop", "name": "Strang Crossroads Phonebox", "public_transport": "platform", "ref": "1807"}}, {"type": "node", "id": 7105344014, "lat": 54.0867365, "lon": -4.6347959, "tags": {"bus": "yes", "highway": "bus_stop", "name": "Ronaldsway Airport", "network": "Bus Vannin", "operator": "Bus Vannin", "public_transport": "platform", "ref": "503/504", "shelter": "yes"}}, {"type": "node", "id": 7204268655, "lat": 54.1499855, "lon": -4.4915887, "tags": {"bus": "yes", "departures_board": "no", "highway": "bus_stop", "name": "Hills Meadow / Peel Road", "operator": "Bus Vannin", "public_transport": "platform", "ref": "112 / 20104"}}, {"type": "node", "id": 7212527592, "lat": 54.1685982, "lon": -4.4768118, "tags": {"amenity": "shelter", "bus": "yes", "highway": "bus_stop", "name": "Glencrutchery Road / Greenfield Road", "public_transport": "platform", "ref": "161", "shelter_type": "public_transport"}}, {"type": "node", "id": 7212527593, "lat": 54.1684299, "lon": -4.4766903, "tags": {"bus": "yes", "highway": "bus_stop", "name": "Glencrutchery Road / Grandstand", "public_transport": "platform", "ref": "20154"}}, {"type": "node", "id": 9179844199, "lat": 54.1612944, "lon": -4.4822659, "tags": {"bench": "yes", "bus": "yes", "highway": "bus_stop", "name": "Ballaquayle Road / Dukes Road", "operator": "Bus Vannin", "public_transport": "platform", "ref": "126", "shelter": "yes"}}, {"type": "node", "id": 9179844236, "lat": 54.1549211, "lon": -4.5011666, "tags": {"bus": "yes", "departures_board": "no", "highway": "bus_stop", "name": "Peel Road Quarterbridge Shelter", "operator": "Bus Vannin", "public_transport": "platform", "ref": "114 / 120101"}}, {"type": "node", "id": 9179845961, "lat": 54.1549093, "lon": -4.4781859, "tags": {"bus": "yes", "highway": "bus_stop", "name": "Harris Promenade / Gaiety Theatre", "public_transport": "platform", "ref": "118", "shelter": "yes"}}, {"type": "node", "id": 9179851518, "lat": 54.1520051, "lon": -4.499399, "tags": {"bus": "yes", "departures_board": "no", "highway": "bus_stop", "name": "Pulrose Road / Peel Road", "operator": "Bus Vannin", "public_transport": "platform", "ref": "113"}}, {"type": "node", "id": 9179866785, "lat": 54.1602971, "lon": -4.4744693, "tags": {"bus": "yes", "highway": "bus_stop", "name": "Central Promenade / Mona Drive", "public_transport": "platform", "railway": "tram_stop", "ref": "120 / 60006", "request_stop": "yes", "shelter": "yes", "tram": "yes"}}, {"type": "node", "id": 9179870110, "lat": 54.1567473, "lon": -4.4858963, "tags": {"bus": "yes", "highway": "bus_stop", "name": "Woodbourne Square", "public_transport": "platform", "ref": "132"}}, {"type": "node", "id": 9179870111, "lat": 54.1580302, "lon": -4.486829, "tags": {"bus": "yes", "highway": "bus_stop", "name": "Woodbourne Road / Albany Lane", "public_transport": "platform", "ref": "133"}}, {"type": "node", "id": 9179870112, "lat": 54.159624, "lon": -4.4861671, "tags": {"bus": "yes", "highway": "bus_stop", "name": "Woodbourne Road / Childrens' Centre", "public_transport": "platform", "ref": "134"}}, {"type": "node", "id": 9179870113, "lat": 54.1625833, "lon": -4.4837001, "tags": {"bus": "yes", "highway": "bus_stop", "name": "Woodbourne Road / St. Mary's", "public_transport": "platform", "ref": "135"}}, {"type": "node", "id": 9179874537, "lat": 54.1647653, "lon": -4.4676665, "tags": {"bus": "yes", "highway": "bus_stop", "name": "Queens Promenade / Piccadilly Court", "public_transport": "platform", "railway": "tram_stop", "ref": "122", "request_stop": "yes", "shelter": "yes", "tram": "yes"}}, {"type": "node", "id": 9179912263, "lat": 54.1509628, "lon": -4.48709, "tags": {"bus": "yes", "highway": "bus_stop", "name": "Westmoreland Road No.19", "public_transport": "platform", "ref": "136"}}, {"type": "node", "id": 9179912264, "lat": 54.1516706, "lon": -4.4895425, "tags": {"bus": "yes", "highway": "bus_stop", "name": "Westmoreland Road Health Centre", "public_transport": "platform", "ref": "137"}}, {"type": "node", "id": 9179912265, "lat": 54.1549551, "lon": -4.4878136, "tags": {"bus": "yes", "highway": "bus_stop", "name": "Mount Bradda", "public_transport": "platform", "ref": "138"}}, {"type": "node", "id": 9179912266, "lat": 54.1559874, "lon": -4.4899746, "tags": {"bus": "yes", "highway": "bus_stop", "name": "Selbourn Road / All Saint's Church", "public_transport": "platform", "ref": "139"}}, {"type": "node", "id": 9179912267, "lat": 54.1557369, "lon": -4.4924026, "tags": {"bus": "yes", "highway": "bus_stop", "name": "Westminster Terrace", "public_transport": "platform", "ref": "140"}}, {"type": "node", "id": 9179948720, "lat": 54.1553357, "lon": -4.4937782, "tags": {"bus": "yes", "highway": "bus_stop", "name": "Westminster Drive", "public_transport": "platform", "ref": "141"}}, {"type": "node", "id": 9179948721, "lat": 54.158611, "lon": -4.4889802, "tags": {"bus": "yes", "highway": "bus_stop", "name": "Albany Road / Brunswick Nurseries", "public_transport": "platform", "ref": "149"}}, {"type": "node", "id": 9179948722, "lat": 54.1536773, "lon": -4.4874856, "tags": {"bus": "yes", "highway": "bus_stop", "name": "Kensington Road", "public_transport": "platform", "ref": "150"}}, {"type": "node", "id": 9179948723, "lat": 54.1587344, "lon": -4.4786996, "tags": {"bench": "no", "bus": "yes", "highway": "bus_stop", "name": "Victoria Road / Stanley Place", "operator": "Bus Vannin", "public_transport": "platform", "ref": "151", "shelter": "no"}}, {"type": "node", "id": 9179948724, "lat": 54.160403, "lon": -4.4775373, "tags": {"bench": "no", "bus": "yes", "highway": "bus_stop", "name": "Victoria Road / Princes Road", "operator": "Bus Vannin", "public_transport": "platform", "ref": "152", "shelter": "no"}}, {"type": "node", "id": 9179948725, "lat": 54.1639795, "lon": -4.4743709, "tags": {"bus": "yes", "highway": "bus_stop", "name": "Victoria Crescent Gordon House", "public_transport": "platform", "ref": "157"}}, {"type": "node", "id": 9179948726, "lat": 54.1647281, "lon": -4.4734951, "tags": {"bus": "yes", "highway": "bus_stop", "name": "Victoria Crescent Poplar Road", "public_transport": "platform", "ref": "158"}}, {"type": "node", "id": 9179948727, "lat": 54.1669245, "lon": -4.4706079, "tags": {"bus": "yes", "highway": "bus_stop", "name": "Victoria Road Shoprite", "public_transport": "platform", "ref": "159"}}, {"type": "node", "id": 9180155177, "lat": 54.1667882, "lon": -4.4807431, "tags": {"bus": "yes", "highway": "bus_stop", "name": "Glencrutchery Road / Mountain View", "network": "Bus Vannin", "public_transport": "platform", "ref": "160", "shelter": "yes"}}, {"type": "node", "id": 9180155179, "lat": 54.169597, "lon": -4.4740711, "tags": {"bus": "yes", "highway": "bus_stop", "name": "Ian Cannell Court", "public_transport": "platform", "ref": "162 / 20155"}}, {"type": "node", "id": 9180155180, "lat": 54.1705258, "lon": -4.4716032, "tags": {"bus": "yes", "highway": "bus_stop", "name": "Second Avenue", "public_transport": "platform", "ref": "163"}}, {"type": "node", "id": 9180155181, "lat": 54.1709947, "lon": -4.4704632, "tags": {"bus": "yes", "highway": "bus_stop", "name": "Third Avenue", "public_transport": "platform", "ref": "164"}}, {"type": "node", "id": 9180155182, "lat": 54.1465703, "lon": -4.4834952, "tags": {"bus": "yes", "highway": "bus_stop", "name": "Bridge Road / Harbour Entrance", "public_transport": "platform", "ref": "165", "shelter": "yes"}}, {"type": "node", "id": 9180155183, "lat": 54.17078, "lon": -4.4690769, "tags": {"bus": "yes", "highway": "bus_stop", "name": "Victoria Road / Glenside", "public_transport": "platform", "ref": "166"}}, {"type": "node", "id": 9180155184, "lat": 54.1499457, "lon": -4.4851284, "tags": {"bus": "yes", "highway": "bus_stop", "name": "Circular Road / St. George's Street", "public_transport": "platform", "ref": "167"}}, {"type": "node", "id": 9180155185, "lat": 54.1529915, "lon": -4.4889094, "tags": {"bus": "yes", "highway": "bus_stop", "name": "Westmoreland Road No.48", "public_transport": "platform", "ref": "168"}}, {"type": "node", "id": 9180155186, "lat": 54.150012, "lon": -4.5015221, "tags": {"bus": "yes", "departures_board": "no", "highway": "bus_stop", "name": "Middle River Industrial Estate", "operator": "Bus Vannin", "public_transport": "platform", "ref": "169"}}, {"type": "node", "id": 9180212067, "lat": 54.1503559, "lon": -4.5027759, "tags": {"bus": "yes", "departures_board": "no", "highway": "bus_stop", "name": "Power Station Shelter", "operator": "Bus Vannin", "public_transport": "platform", "ref": "204"}}, {"type": "node", "id": 9180212068, "lat": 54.1503251, "lon": -4.5030011, "tags": {"bus": "yes", "departures_board": "no", "highway": "bus_stop", "name": "Groves Road / Power Station", "operator": "Bus Vannin", "public_transport": "platform", "ref": "203"}}, {"type": "node", "id": 9180212069, "lat": 54.1528757, "lon": -4.5072325, "tags": {"bus": "yes", "highway": "bus_stop", "name": "Groves Road / Saddle Mews", "public_transport": "platform", "ref": "208"}}, {"type": "node", "id": 9180212070, "lat": 54.1526099, "lon": -4.5100596, "tags": {"bus": "yes", "highway": "bus_stop", "name": "New Castletown Road", "public_transport": "platform", "ref": "209"}}, {"type": "node", "id": 9180212071, "lat": 54.1528094, "lon": -4.510072, "tags": {"bus": "yes", "highway": "bus_stop", "name": "Harcroft Meadow / New Castletown Road", "public_transport": "platform", "ref": "210"}}, {"type": "node", "id": 9180212072, "lat": 54.1510985, "lon": -4.5101983, "tags": {"bus": "yes", "highway": "bus_stop", "name": "Springfield Road ./ Springfield Avenue", "public_transport": "platform", "ref": "211"}}, {"type": "node", "id": 9180212073, "lat": 54.1511526, "lon": -4.5099293, "tags": {"bus": "yes", "highway": "bus_stop", "name": "Springfield Road Towards Douglas", "public_transport": "platform", "ref": "213"}}, {"type": "node", "id": 9180212075, "lat": 54.1397156, "lon": -4.5482605, "tags": {"bus": "yes", "highway": "bus_stop", "name": "The Forge Entrance", "public_transport": "platform", "ref": "305"}}, {"type": "node", "id": 9180212076, "lat": 54.1398915, "lon": -4.5480084, "tags": {"bus": "yes", "highway": "bus_stop", "name": "The Forge Shelter", "public_transport": "platform", "ref": "304"}}, {"type": "node", "id": 9180304127, "lat": 54.1351686, "lon": -4.5618339, "tags": {"bus": "yes", "highway": "bus_stop", "name": "Mount Murry / Knock Froy Lane", "public_transport": "platform", "ref": "306", "shelter": "yes", "source": "Isle of Man Government aerial imagery (2001)"}}, {"type": "node", "id": 9180304128, "lat": 54.1351063, "lon": -4.562323, "tags": {"bus": "yes", "highway": "bus_stop", "name": "Mount Murray / Ballacutchell Road", "public_transport": "platform", "ref": "307", "shelter": "yes", "source": "Isle of Man Government aerial imagery (2001)"}}, {"type": "node", "id": 9180304129, "lat": 54.13155, "lon": -4.565558, "tags": {"bus": "yes", "highway": "bus_stop", "name": "Newtown Chapel", "public_transport": "platform", "ref": "309", "source": "Isle of Man Government aerial imagery (2001)"}}, {"type": "node", "id": 9180304130, "lat": 54.1311649, "lon": -4.5661454, "tags": {"bus": "yes", "highway": "bus_stop", "name": "Newtown Estate Shelter", "public_transport": "platform", "ref": "308", "source": "Isle of Man Government aerial imagery (2001)"}}, {"type": "node", "id": 9180304131, "lat": 54.121225, "lon": -4.579543, "tags": {"bus": "yes", "highway": "bus_stop", "name": "Santon School Layby", "public_transport": "platform", "ref": "311", "source": "Isle of Man Government aerial imagery (2001)"}}, {"type": "node", "id": 9180304132, "lat": 54.1212533, "lon": -4.5789315, "tags": {"bench": "yes", "bus": "yes", "highway": "bus_stop", "name": "Santon School", "public_transport": "platform", "ref": "312", "shelter": "yes", "source": "Isle of Man Government aerial imagery (2001)"}}, {"type": "node", "id": 9180304133, "lat": 54.1381467, "lon": -4.5620558, "tags": {"bus": "yes", "highway": "bus_stop", "name": "Mount Murray Entrance", "public_transport": "platform", "ref": "316", "shelter": "yes", "source": "Isle of Man Government aerial imagery (2001)"}}, {"type": "node", "id": 9180304134, "lat": 54.0994047, "lon": -4.6251437, "tags": {"bus": "yes", "highway": "bus_stop", "name": "Whitestone Garage Entrance", "public_transport": "platform", "ref": "404"}}, {"type": "node", "id": 9180348514, "lat": 54.0982069, "lon": -4.6323812, "tags": {"bus": "yes", "highway": "bus_stop", "name": "The Abbey Church", "public_transport": "platform", "ref": "411"}}, {"type": "node", "id": 9180348515, "lat": 54.0983579, "lon": -4.6322766, "tags": {"bus": "yes", "highway": "bus_stop", "name": "Abbey Church Entrance", "public_transport": "platform", "ref": "412"}}, {"type": "node", "id": 9180348516, "lat": 54.0962582, "lon": -4.646514, "tags": {"bus": "yes", "highway": "bus_stop", "name": "Crossfourways / Quarry Entrance", "public_transport": "platform", "ref": "413"}}, {"type": "node", "id": 9180349417, "lat": 54.0957209, "lon": -4.6464463, "tags": {"bus": "yes", "highway": "bus_stop", "name": "Cross Fourways", "public_transport": "platform", "ref": "414"}}, {"type": "node", "id": 9180349418, "lat": 54.1048188, "lon": -4.6423704, "tags": {"bus": "yes", "highway": "bus_stop", "name": "Silverdale Glen", "public_transport": "platform", "ref": "415"}}, {"type": "node", "id": 9180349419, "lat": 54.1050956, "lon": -4.6419949, "tags": {"bus": "yes", "highway": "bus_stop", "name": "Silverdale Glen Entrance", "public_transport": "platform", "ref": "416"}}, {"type": "node", "id": 9180349420, "lat": 54.0889254, "lon": -4.6324364, "tags": {"bus": "yes", "highway": "bus_stop", "name": "Freeport North/South", "public_transport": "platform", "ref": "501/502"}}, {"type": "node", "id": 9180396355, "lat": 54.0835036, "lon": -4.6745196, "tags": {"bus": "yes", "highway": "bus_stop", "name": "Ballakeighan Cottage", "network": "Bus Vannin", "public_transport": "platform", "ref": "701"}}, {"type": "node", "id": 9180396356, "lat": 54.0836084, "lon": -4.6743862, "tags": {"bus": "yes", "highway": "bus_stop", "name": "Ballakeighan Farm", "network": "Bus Vannin", "public_transport": "platform", "ref": "702"}}, {"type": "node", "id": 9180396357, "lat": 54.0921077, "lon": -4.6752925, "tags": {"bus": "yes", "highway": "bus_stop", "name": "Ballabeg Railway Station", "public_transport": "platform", "ref": "703"}}, {"type": "node", "id": 9180396358, "lat": 54.092265, "lon": -4.6753819, "tags": {"bus": "yes", "highway": "bus_stop", "name": "Ballabeg Railway Station", "public_transport": "platform", "ref": "704"}}, {"type": "node", "id": 9180396359, "lat": 54.0992718, "lon": -4.6782486, "tags": {"bus": "yes", "highway": "bus_stop", "name": "Friary Park Farm", "public_transport": "platform", "ref": "707"}}, {"type": "node", "id": 9180396360, "lat": 54.1006807, "lon": -4.6805648, "tags": {"bus": "yes", "highway": "bus_stop", "name": "Ballabeg Hall", "public_transport": "platform", "ref": "710"}}, {"type": "node", "id": 9180396361, "lat": 54.0997083, "lon": -4.6827039, "tags": {"bus": "yes", "highway": "bus_stop", "name": "Vicarage Close Shelter", "public_transport": "platform", "ref": "711"}}, {"type": "node", "id": 9180402001, "lat": 54.0852545, "lon": -4.7568236, "tags": {"bus": "yes", "highway": "bus_stop", "name": "Port Erin Railway Station", "public_transport": "platform", "ref": "805"}}, {"type": "node", "id": 9180402002, "lat": 54.087561, "lon": -4.7513729, "tags": {"bus": "yes", "highway": "bus_stop", "name": "Bay View Road / Ballakneale Avenue", "public_transport": "platform", "ref": "806"}}, {"type": "node", "id": 9180402003, "lat": 54.0834971, "lon": -4.7442176, "tags": {"bus": "yes", "highway": "bus_stop", "name": "Four Roads", "public_transport": "platform", "ref": "810"}}, {"type": "node", "id": 9180402004, "lat": 54.0876135, "lon": -4.7542458, "tags": {"bus": "yes", "highway": "bus_stop", "name": "Bay View Road / Harrison Street", "public_transport": "platform", "ref": "812"}}, {"type": "node", "id": 9180402005, "lat": 54.0874213, "lon": -4.7572283, "tags": {"bus": "yes", "highway": "bus_stop", "name": "Bay View Road / Nelson Street", "public_transport": "platform", "ref": "818"}}, {"type": "node", "id": 9182452739, "lat": 54.0803158, "lon": -4.7420736, "tags": {"bus": "yes", "highway": "bus_stop", "name": "Port St Mary Railway Station", "public_transport": "platform", "ref": "902"}}, {"type": "node", "id": 9182452740, "lat": 54.075605, "lon": -4.7375932, "tags": {"bus": "yes", "highway": "bus_stop", "name": "Carrick Apartments", "public_transport": "platform", "ref": "905"}}, {"type": "node", "id": 9182452741, "lat": 54.0753217, "lon": -4.7379258, "tags": {"bus": "yes", "highway": "bus_stop", "name": "Carrick Apartments", "public_transport": "platform", "ref": "906"}}, {"type": "node", "id": 9182452742, "lat": 54.0716616, "lon": -4.7385988, "tags": {"bus": "yes", "highway": "bus_stop", "name": "Queen's Road", "public_transport": "platform", "ref": "908"}}, {"type": "node", "id": 9182452743, "lat": 54.0796927, "lon": -4.738592, "tags": {"bus": "yes", "highway": "bus_stop", "name": "Beach Road / Creggan Lea", "public_transport": "platform", "ref": "912"}}, {"type": "node", "id": 9182452744, "lat": 54.0797437, "lon": -4.7383232, "tags": {"bus": "yes", "highway": "bus_stop", "name": "Beach Road / Creggan Lea Junction", "public_transport": "platform", "ref": "913"}}, {"type": "node", "id": 9182519116, "lat": 54.1477936, "lon": -4.5243745, "tags": {"bus": "yes", "highway": "bus_stop", "name": "Cooil Road / Cooil Drive", "public_transport": "platform", "ref": "1101", "shelter": "yes"}}, {"type": "node", "id": 9182522817, "lat": 54.147371, "lon": -4.5232448, "tags": {"bus": "yes", "highway": "bus_stop", "name": "Cooil Road / Close Fletcher", "public_transport": "platform", "ref": "1102", "shelter": "yes"}}, {"type": "node", "id": 9182522818, "lat": 54.1514475, "lon": -4.532671, "tags": {"bus": "yes", "highway": "bus_stop", "name": "Cooil Road / Robinsons", "public_transport": "platform", "ref": "1103", "shelter": "yes"}}, {"type": "node", "id": 9182522819, "lat": 54.1540338, "lon": -4.5351499, "tags": {"bus": "yes", "highway": "bus_stop", "name": "Business Park / Canada Life", "public_transport": "platform", "ref": "1105"}}, {"type": "node", "id": 9182522820, "lat": 54.1507752, "lon": -4.5264161, "tags": {"bus": "yes", "highway": "bus_stop", "name": "Spring Valley Industrial Estate / Unit 7", "public_transport": "platform", "ref": "1108"}}, {"type": "node", "id": 9182522821, "lat": 54.1542256, "lon": -4.5338958, "tags": {"bus": "yes", "highway": "bus_stop", "name": "Business Park / Manx Telecom", "public_transport": "platform", "ref": "1110"}}, {"type": "node", "id": 9182522822, "lat": 54.1531876, "lon": -4.5320638, "tags": {"bus": "yes", "highway": "bus_stop", "name": "Business Park / Red Cross", "public_transport": "platform", "ref": "1111"}}, {"type": "node", "id": 9182522823, "lat": 54.1515164, "lon": -4.5310431, "tags": {"bus": "yes", "highway": "bus_stop", "name": "Business Park / Haldane Fisher", "public_transport": "platform", "ref": "1112"}}, {"type": "node", "id": 9182522824, "lat": 54.1566769, "lon": -4.5290725, "tags": {"bus": "yes", "highway": "bus_stop", "name": "Rosehill Mews, Vicarage Road", "public_transport": "platform", "ref": "1113"}}, {"type": "node", "id": 9182522825, "lat": 54.1568626, "lon": -4.5286981, "tags": {"bus": "yes", "highway": "bus_stop", "name": "Opposite Rosehill Mews, Vicarage Road", "public_transport": "platform", "ref": "1114"}}, {"type": "node", "id": 9182522826, "lat": 54.1541559, "lon": -4.5394644, "tags": {"bus": "yes", "highway": "bus_stop", "name": "Cooil Crossroads, shelter", "public_transport": "platform", "ref": "1202", "shelter": "yes"}}, {"type": "node", "id": 9182522827, "lat": 54.1672148, "lon": -4.6105091, "tags": {"bus": "yes", "highway": "bus_stop", "name": "Eairy Dam", "public_transport": "platform", "ref": "1402"}}, {"type": "node", "id": 9182522828, "lat": 54.1673297, "lon": -4.6062307, "tags": {"bus": "yes", "highway": "bus_stop", "name": "Dreemlang", "public_transport": "platform", "ref": "1403"}}, {"type": "node", "id": 9182522829, "lat": 54.1674528, "lon": -4.6063895, "tags": {"bus": "yes", "highway": "bus_stop", "name": "Dreemlang / Gorselands", "public_transport": "platform", "ref": "1404"}}, {"type": "node", "id": 9182522830, "lat": 54.1599286, "lon": -4.5876261, "tags": {"bus": "yes", "highway": "bus_stop", "name": "Garth Crossroads Towards Foxdale", "public_transport": "platform", "ref": "1405"}}, {"type": "node", "id": 9182522831, "lat": 54.1596447, "lon": -4.5874652, "tags": {"bus": "yes", "highway": "bus_stop", "name": "Garth Crossroads Towards Douglas", "public_transport": "platform", "ref": "1406"}}, {"type": "node", "id": 9182522832, "lat": 54.1694106, "lon": -4.6351186, "tags": {"bus": "yes", "highway": "bus_stop", "name": "Foxdale School Shelter", "public_transport": "platform", "ref": "1502"}}, {"type": "node", "id": 9182522833, "lat": 54.1708321, "lon": -4.6395837, "tags": {"bus": "yes", "highway": "bus_stop", "name": "Higher Foxdale / Baltic Hotel", "public_transport": "platform", "ref": "1503"}}, {"type": "node", "id": 9182522834, "lat": 54.1711257, "lon": -4.6395865, "tags": {"bus": "yes", "highway": "bus_stop", "name": "Foxdale Main Road Shelter", "public_transport": "platform", "ref": "1504", "shelter": "yes"}}, {"type": "node", "id": 9182522835, "lat": 54.1696993, "lon": -4.617221, "tags": {"bus": "yes", "highway": "bus_stop", "name": "Ard Jekyll", "public_transport": "platform", "ref": "1505"}}, {"type": "node", "id": 9182522836, "lat": 54.169737, "lon": -4.6168434, "tags": {"bus": "yes", "highway": "bus_stop", "name": "Ard Jekyll Car Park Exit", "public_transport": "platform", "ref": "1506"}}, {"type": "node", "id": 9182522837, "lat": 54.1690982, "lon": -4.6311526, "tags": {"bus": "yes", "highway": "bus_stop", "name": "Opposite Springfield Rise", "public_transport": "platform", "ref": "1507"}}, {"type": "node", "id": 9182522838, "lat": 54.1692017, "lon": -4.631438, "tags": {"bus": "yes", "highway": "bus_stop", "name": "Springfield Rise", "public_transport": "platform", "ref": "1508"}}, {"type": "node", "id": 9182578864, "lat": 54.1563927, "lon": -4.5076281, "tags": {"bus": "yes", "highway": "bus_stop", "name": "Saddle Road", "public_transport": "platform", "ref": "1601"}}, {"type": "node", "id": 9182578865, "lat": 54.1562363, "lon": -4.5090233, "tags": {"bus": "yes", "highway": "bus_stop", "name": "Ballaughton Manor Hill / Ballaughton Lane", "public_transport": "platform", "ref": "1602"}}, {"type": "node", "id": 9182578866, "lat": 54.1565084, "lon": -4.508346, "tags": {"bus": "yes", "highway": "bus_stop", "name": "Ballaughton Manor Hill / Copse Hill", "public_transport": "platform", "ref": "1603"}}, {"type": "node", "id": 9182578867, "lat": 54.1570089, "lon": -4.5128677, "tags": {"bus": "yes", "highway": "bus_stop", "name": "Ballaughton Manor Hill / Cooil Farrane", "public_transport": "platform", "ref": "1604"}}, {"type": "node", "id": 9182578868, "lat": 54.1573219, "lon": -4.5134446, "tags": {"bus": "yes", "highway": "bus_stop", "name": "Ballaughton Manor Hill", "public_transport": "platform", "ref": "1605"}}, {"type": "node", "id": 9182578870, "lat": 54.1580749, "lon": -4.5150461, "tags": {"bus": "yes", "highway": "bus_stop", "name": "Meadow Crescent", "public_transport": "platform", "ref": "1607"}}, {"type": "node", "id": 9182578871, "lat": 54.1595575, "lon": -4.5126953, "tags": {"bus": "yes", "highway": "bus_stop", "name": "Kirby, Vicarage Road", "public_transport": "platform", "ref": "1608"}}, {"type": "node", "id": 9182578872, "lat": 54.1593153, "lon": -4.5132463, "tags": {"bus": "yes", "highway": "bus_stop", "name": "Vicarage Park, Vicarage Road", "public_transport": "platform", "ref": "1609"}}, {"type": "node", "id": 9182578873, "lat": 54.1586843, "lon": -4.5171288, "tags": {"bus": "yes", "highway": "bus_stop", "name": "Heather View, Vicarage Road", "public_transport": "platform", "ref": "1610"}}, {"type": "node", "id": 9182578874, "lat": 54.1583307, "lon": -4.5204584, "tags": {"bus": "yes", "highway": "bus_stop", "name": "Willowbrook Gardens, Vicarage Road", "public_transport": "platform", "ref": "1611"}}, {"type": "node", "id": 9182578875, "lat": 54.1614358, "lon": -4.5064623, "tags": {"bus": "yes", "highway": "bus_stop", "name": "Braddan Bridge / Old Church Layby", "public_transport": "platform", "ref": "1701"}}, {"type": "node", "id": 9182578876, "lat": 54.1653613, "lon": -4.5065411, "tags": {"bus": "yes", "highway": "bus_stop", "name": "Braddan School", "public_transport": "platform", "ref": "1703"}}, {"type": "node", "id": 9182578877, "lat": 54.1653499, "lon": -4.5067202, "tags": {"bus": "yes", "highway": "bus_stop", "name": "Braddan School Layby", "public_transport": "platform", "ref": "1704"}}, {"type": "node", "id": 9182578878, "lat": 54.1630084, "lon": -4.5083343, "tags": {"bus": "yes", "highway": "bus_stop", "name": "Parkinsons", "public_transport": "platform", "ref": "1705"}}, {"type": "node", "id": 9182578879, "lat": 54.1611936, "lon": -4.507709, "tags": {"bus": "yes", "highway": "bus_stop", "name": "Saddle Road / Braddan Church", "public_transport": "platform", "ref": "1711"}}, {"type": "node", "id": 9182578880, "lat": 54.1613268, "lon": -4.5073871, "tags": {"bus": "yes", "highway": "bus_stop", "name": "Saddle Road / Braddan Old Church", "public_transport": "platform", "ref": "1712"}}, {"type": "node", "id": 9182578881, "lat": 54.1724815, "lon": -4.5062492, "tags": {"bus": "yes", "highway": "bus_stop", "name": "Nobles Hospital Westbound", "public_transport": "platform", "ref": "1810"}}, {"type": "node", "id": 9182578882, "lat": 54.1716466, "lon": -4.5153401, "tags": {"bus": "yes", "highway": "bus_stop", "name": "Ballanawin", "public_transport": "platform", "ref": "1802", "shelter": "yes"}}, {"type": "node", "id": 9182578883, "lat": 54.1711254, "lon": -4.5071059, "tags": {"bus": "yes", "highway": "bus_stop", "name": "Nobles Helicopter Pad Westbound", "public_transport": "platform", "ref": "1808"}}, {"type": "node", "id": 9182578884, "lat": 54.1709408, "lon": -4.5069471, "tags": {"bus": "yes", "highway": "bus_stop", "name": "Nobles Helicopter Pad Eastbound", "public_transport": "platform", "ref": "1803"}}, {"type": "node", "id": 9182578885, "lat": 54.1710484, "lon": -4.5101531, "tags": {"bus": "yes", "highway": "bus_stop", "name": "Cronk Grianagh", "public_transport": "platform", "ref": "1805"}}, {"type": "node", "id": 9182578886, "lat": 54.17345, "lon": -4.5037407, "tags": {"bus": "yes", "highway": "bus_stop", "name": "Hospice Isle of Man", "public_transport": "platform", "ref": "1806"}}, {"type": "node", "id": 9182578887, "lat": 54.1758752, "lon": -4.5093927, "tags": {"bus": "yes", "highway": "bus_stop", "name": "Reayrt Noa", "public_transport": "platform", "ref": "1811"}}, {"type": "node", "id": 9182578888, "lat": 54.1738871, "lon": -4.5085307, "tags": {"highway": "bus_stop", "public_transport": "platform", "ref": "1812"}}, {"type": "node", "id": 9182578889, "lat": 54.1792003, "lon": -4.5195125, "tags": {"bus": "yes", "highway": "bus_stop", "name": "Mount Rule / Ballamilligan Estate", "public_transport": "platform", "ref": "1813"}}, {"type": "node", "id": 9186740475, "lat": 54.1697502, "lon": -4.5237777, "tags": {"bus": "yes", "highway": "bus_stop", "name": "Opposite Post Office", "public_transport": "platform", "ref": "1901"}}, {"type": "node", "id": 9186740476, "lat": 54.1698655, "lon": -4.5234786, "tags": {"bus": "yes", "highway": "bus_stop", "name": "Union Mills Post Office", "public_transport": "platform", "ref": "1902", "shelter": "yes"}}, {"type": "node", "id": 9186740477, "lat": 54.1673051, "lon": -4.51774, "tags": {"bus": "yes", "highway": "bus_stop", "name": "Ashlar Drive", "public_transport": "platform", "ref": "1905"}}, {"type": "node", "id": 9186740478, "lat": 54.1712142, "lon": -4.5180467, "tags": {"bus": "yes", "highway": "bus_stop", "name": "Strang Road / Camlork Place", "public_transport": "platform", "ref": "1906"}}, {"type": "node", "id": 9186740479, "lat": 54.1687603, "lon": -4.5220821, "tags": {"bus": "yes", "highway": "bus_stop", "name": "Union Mills Railway Hotel", "public_transport": "platform", "ref": "1907"}}, {"type": "node", "id": 9186740480, "lat": 54.1681712, "lon": -4.5192406, "tags": {"bus": "yes", "highway": "bus_stop", "name": "Snugborough Shelter", "public_transport": "platform", "ref": "1908", "shelter": "yes"}}, {"type": "node", "id": 9186740481, "lat": 54.1714483, "lon": -4.5358752, "tags": {"bus": "yes", "highway": "bus_stop", "name": "Ballahutchin House", "public_transport": "platform", "ref": "1909"}}, {"type": "node", "id": 9186740482, "lat": 54.1714897, "lon": -4.5351735, "tags": {"bus": "yes", "highway": "bus_stop", "name": "Ballahutchin /Ballafreer Lane", "public_transport": "platform", "ref": "1910"}}, {"type": "node", "id": 9186750944, "lat": 54.1725228, "lon": -4.5426393, "tags": {"bus": "yes", "highway": "bus_stop", "name": "Glen Lough Entrance", "public_transport": "platform", "ref": "2001"}}, {"type": "node", "id": 9186750945, "lat": 54.1738617, "lon": -4.5492169, "tags": {"bus": "yes", "highway": "bus_stop", "name": "Ballagarey", "public_transport": "platform", "ref": "2003"}}, {"type": "node", "id": 9186750946, "lat": 54.1745538, "lon": -4.5503946, "tags": {"bus": "yes", "highway": "bus_stop", "name": "Ballagarey Entrance", "public_transport": "platform", "ref": "2004", "shelter": "yes"}}, {"type": "node", "id": 9186750947, "lat": 54.1766258, "lon": -4.5538783, "tags": {"bus": "yes", "highway": "bus_stop", "name": "Glen Darragh Road Junction", "public_transport": "platform", "ref": "2005"}}, {"type": "node", "id": 9186750948, "lat": 54.1770189, "lon": -4.5541915, "tags": {"bus": "yes", "highway": "bus_stop", "name": "Glen Darragh Road / Douglas Road", "public_transport": "platform", "ref": "2006"}}, {"type": "node", "id": 9186750949, "lat": 54.1777278, "lon": -4.5555042, "tags": {"bus": "yes", "highway": "bus_stop", "name": "Marown Television", "public_transport": "platform", "ref": "2007"}}, {"type": "node", "id": 9186750950, "lat": 54.1780066, "lon": -4.5556351, "tags": {"bench": "yes", "bus": "yes", "highway": "bus_stop", "name": "Marown T.V. Shelter", "public_transport": "platform", "ref": "2008", "shelter": "yes"}}, {"type": "node", "id": 9186750951, "lat": 54.1754313, "lon": -4.5498142, "tags": {"bus": "yes", "highway": "bus_stop", "name": "Greeba Avenue No.5 Westbound", "public_transport": "platform", "ref": "2009"}}, {"type": "node", "id": 9186750952, "lat": 54.176878, "lon": -4.547931, "tags": {"bus": "yes", "highway": "bus_stop", "name": "Ballagarey Road Opposite Ballagarey Crescent", "public_transport": "platform", "ref": "2010"}}, {"type": "node", "id": 9186767428, "lat": 54.1822917, "lon": -4.5626734, "tags": {"bus": "yes", "highway": "bus_stop", "name": "Cedar Lodge", "public_transport": "platform", "ref": "2101"}}, {"type": "node", "id": 9186767429, "lat": 54.1825233, "lon": -4.5629148, "tags": {"bus": "yes", "highway": "bus_stop", "name": "Woodlea Villas", "public_transport": "platform", "ref": "2102"}}, {"type": "node", "id": 9186767430, "lat": 54.1834204, "lon": -4.5652481, "tags": {"bus": "yes", "highway": "bus_stop", "name": "Douglas Road Layby", "public_transport": "platform", "ref": "2103"}}, {"type": "node", "id": 9186767431, "lat": 54.1864787, "lon": -4.5722971, "tags": {"bus": "yes", "highway": "bus_stop", "name": "Ballavitchell Road", "public_transport": "platform", "ref": "2108"}}, {"type": "node", "id": 9186767432, "lat": 54.1903364, "lon": -4.5821089, "tags": {"bus": "yes", "highway": "bus_stop", "name": "The Highlander Shelter", "public_transport": "platform", "ref": "2202"}}, {"type": "node", "id": 9186767433, "lat": 54.1933616, "lon": -4.5942645, "tags": {"bus": "yes", "highway": "bus_stop", "name": "Appledene", "public_transport": "platform", "ref": "2203"}}, {"type": "node", "id": 9186767434, "lat": 54.1935362, "lon": -4.5947179, "tags": {"bus": "yes", "highway": "bus_stop", "name": "Greeba Castle", "public_transport": "platform", "ref": "2204"}}, {"type": "node", "id": 9186767435, "lat": 54.1962502, "lon": -4.6045273, "tags": {"bus": "yes", "highway": "bus_stop", "name": "Greeba Castle / Douglas Road", "public_transport": "platform", "ref": "2205"}}, {"type": "node", "id": 9186767436, "lat": 54.1953153, "lon": -4.6029769, "tags": {"bus": "yes", "highway": "bus_stop", "name": "Glen Dhoo", "public_transport": "platform", "ref": "2206"}}, {"type": "node", "id": 9186767437, "lat": 54.1969381, "lon": -4.6079838, "tags": {"bus": "yes", "highway": "bus_stop", "name": "Greeba Bridge Shelter", "public_transport": "platform", "ref": "2207", "shelter": "yes"}}, {"type": "node", "id": 9186767438, "lat": 54.1971977, "lon": -4.6099688, "tags": {"bus": "yes", "highway": "bus_stop", "name": "The Hawthorn Inn", "public_transport": "platform", "ref": "2208"}}, {"type": "node", "id": 9186767439, "lat": 54.1975804, "lon": -4.6152503, "tags": {"bus": "yes", "highway": "bus_stop", "name": "Kerrowgarrow Road", "public_transport": "platform", "ref": "2210"}}, {"type": "node", "id": 9186788263, "lat": 54.2024222, "lon": -4.6281007, "tags": {"bus": "yes", "highway": "bus_stop", "name": "Ballacraine Farm", "public_transport": "platform", "ref": "2302"}}, {"type": "node", "id": 9186788264, "lat": 54.2021434, "lon": -4.6293787, "tags": {"bus": "yes", "highway": "bus_stop", "name": "Curragh Road / Ballacraine", "public_transport": "platform", "ref": "2304"}}, {"type": "node", "id": 9186788265, "lat": 54.196951, "lon": -4.6378137, "tags": {"bus": "yes", "highway": "bus_stop", "name": "St. John's / D.E.F.A. Offices", "public_transport": "platform", "ref": "2305"}}, {"type": "node", "id": 9186788266, "lat": 54.1955174, "lon": -4.6358688, "tags": {"bus": "yes", "highway": "bus_stop", "name": "Hope Shelter / Curragh Road", "public_transport": "platform", "ref": "2306", "shelter": "no"}}, {"type": "node", "id": 9186788267, "lat": 54.1993301, "lon": -4.6411951, "tags": {"bus": "yes", "highway": "bus_stop", "name": "Opposite St. John's Football Club", "public_transport": "platform", "ref": "2307"}}, {"type": "node", "id": 9186788268, "lat": 54.1957261, "lon": -4.6371565, "tags": {"bus": "yes", "highway": "bus_stop", "name": "Forestry Board Shelter", "public_transport": "platform", "ref": "2308"}}, {"type": "node", "id": 9186788269, "lat": 54.2014591, "lon": -4.6422777, "tags": {"bus": "yes", "highway": "bus_stop", "name": "St John's, Station Road opposite school", "public_transport": "platform", "ref": "2309", "shelter": "yes"}}, {"type": "node", "id": 9186788270, "lat": 54.1992597, "lon": -4.6408788, "tags": {"bus": "yes", "highway": "bus_stop", "name": "St. John's Football Club Entrance", "public_transport": "platform", "ref": "2310"}}, {"type": "node", "id": 9186788271, "lat": 54.2031435, "lon": -4.6312998, "tags": {"bus": "yes", "highway": "bus_stop", "name": "Ballacraine Opposite Old Smithy", "public_transport": "platform", "ref": "2311"}}, {"type": "node", "id": 9186788272, "lat": 54.2014568, "lon": -4.6420978, "tags": {"bus": "yes", "highway": "bus_stop", "name": "St John's, Station Road Shelter", "public_transport": "platform", "ref": "2312", "shelter": "yes"}}, {"type": "node", "id": 9186788273, "lat": 54.2032658, "lon": -4.6373011, "tags": {"bus": "yes", "highway": "bus_stop", "name": "Balladoyne Entrance", "public_transport": "platform", "ref": "2313"}}, {"type": "node", "id": 9186788274, "lat": 54.2033633, "lon": -4.6375587, "tags": {"bus": "yes", "highway": "bus_stop", "name": "Tynwald Close Shelter", "public_transport": "platform", "ref": "2314"}}, {"type": "node", "id": 9186788275, "lat": 54.2031192, "lon": -4.6413941, "tags": {"bus": "yes", "highway": "bus_stop", "name": "Bunscooil Layby", "public_transport": "platform", "ref": "2315"}}, {"type": "node", "id": 9186788276, "lat": 54.2033165, "lon": -4.6439157, "tags": {"bus": "yes", "highway": "bus_stop", "name": "Tynwald Inn Car Park", "public_transport": "platform", "ref": "2317"}}, {"type": "node", "id": 9186788277, "lat": 54.2034055, "lon": -4.6434126, "tags": {"bus": "yes", "highway": "bus_stop", "name": "Tynwald Inn Shelter", "public_transport": "platform", "ref": "2316"}}, {"type": "node", "id": 9186788278, "lat": 54.2030983, "lon": -4.6316495, "tags": {"bus": "yes", "highway": "bus_stop", "name": "Ballacraine Old Smithy", "public_transport": "platform", "ref": "2318"}}, {"type": "node", "id": 9186788279, "lat": 54.1912242, "lon": -4.6380958, "tags": {"bus": "yes", "highway": "bus_stop", "name": "Foxdale Road / Ballahig Farm", "public_transport": "platform", "ref": "2319"}}, {"type": "node", "id": 9186788280, "lat": 54.1910911, "lon": -4.6384112, "tags": {"bus": "yes", "highway": "bus_stop", "name": "Opposite Ballahig Farm", "public_transport": "platform", "ref": "2320"}}, {"type": "node", "id": 9186788281, "lat": 54.1935781, "lon": -4.6370887, "tags": {"bus": "yes", "highway": "bus_stop", "name": "Foxdale Road Opposite Pine View", "public_transport": "platform", "ref": "2321"}}, {"type": "node", "id": 9186812753, "lat": 54.2385683, "lon": -4.6473361, "tags": {"bus": "yes", "highway": "bus_stop", "name": "Knocksharry Farm", "public_transport": "platform", "ref": "2501"}}, {"type": "node", "id": 9186812754, "lat": 54.2388969, "lon": -4.6467426, "tags": {"bus": "yes", "highway": "bus_stop", "name": "Knocksharry / Switchback", "public_transport": "platform", "ref": "2502"}}, {"type": "node", "id": 9186812755, "lat": 54.2475468, "lon": -4.6396805, "tags": {"bus": "yes", "highway": "bus_stop", "name": "Lynague", "public_transport": "platform", "ref": "2503"}}, {"type": "node", "id": 9186812756, "lat": 54.2480814, "lon": -4.6393216, "tags": {"bus": "yes", "highway": "bus_stop", "name": "Lynague / Ballabooie Road", "public_transport": "platform", "ref": "2504"}}, {"type": "node", "id": 9186812757, "lat": 54.2626635, "lon": -4.6182765, "tags": {"bus": "yes", "highway": "bus_stop", "name": "Ballaquine", "public_transport": "platform", "ref": "2505"}}, {"type": "node", "id": 9186812758, "lat": 54.2627713, "lon": -4.6179761, "tags": {"bus": "yes", "highway": "bus_stop", "name": "Ballquine Farm", "public_transport": "platform", "ref": "2506"}}, {"type": "node", "id": 9186812759, "lat": 54.2325872, "lon": -4.660124, "tags": {"bus": "yes", "highway": "bus_stop", "name": "Whitestrand / Lhergydhoo", "public_transport": "platform", "ref": "2507"}}, {"type": "node", "id": 9186812760, "lat": 54.2328827, "lon": -4.6598318, "tags": {"bus": "yes", "highway": "bus_stop", "name": "Whitestrand / Lhergydhoo Farm", "public_transport": "platform", "ref": "2508"}}, {"type": "node", "id": 9186851540, "lat": 54.2791827, "lon": -4.5905396, "tags": {"bus": "yes", "highway": "bus_stop", "name": "Glen Wyllin Campsite", "public_transport": "platform", "ref": "2601"}}, {"type": "node", "id": 9186851541, "lat": 54.2792268, "lon": -4.5901834, "tags": {"bus": "yes", "highway": "bus_stop", "name": "Kirk Michael / Glen Wyllin", "public_transport": "platform", "ref": "2602"}}, {"type": "node", "id": 9186851542, "lat": 54.2834904, "lon": -4.5874213, "tags": {"bus": "yes", "highway": "bus_stop", "name": "B.C.C. Carrs", "public_transport": "platform", "ref": "2603"}}, {"type": "node", "id": 9186851543, "lat": 54.2817046, "lon": -4.5878437, "tags": {"bus": "yes", "highway": "bus_stop", "name": "Kirk Michael School", "public_transport": "platform", "ref": "2604"}}, {"type": "node", "id": 9186851544, "lat": 54.2867186, "lon": -4.5834405, "tags": {"bus": "yes", "highway": "bus_stop", "name": "Opposite Saddlery", "public_transport": "platform", "ref": "2605"}}, {"type": "node", "id": 9186851545, "lat": 54.2835624, "lon": -4.5871781, "tags": {"bus": "yes", "highway": "bus_stop", "name": "Kirk Michael Methodist Church Shelter", "public_transport": "platform", "ref": "2606"}}, {"type": "node", "id": 9186851546, "lat": 54.2867784, "lon": -4.5831036, "tags": {"bus": "yes", "highway": "bus_stop", "name": "The Saddlery", "public_transport": "platform", "ref": "2608"}}, {"type": "node", "id": 9186851547, "lat": 54.2897479, "lon": -4.5800503, "tags": {"bus": "yes", "highway": "bus_stop", "name": "Pennybridge Stables", "public_transport": "platform", "ref": "2609"}}, {"type": "node", "id": 9186851548, "lat": 54.2900387, "lon": -4.5796598, "tags": {"bus": "yes", "highway": "bus_stop", "name": "Shelter Opposite Filling Station", "public_transport": "platform", "ref": "2610"}}, {"type": "node", "id": 9186851549, "lat": 54.3079046, "lon": -4.5499473, "tags": {"bus": "yes", "highway": "bus_stop", "name": "Ballacobb", "public_transport": "platform", "ref": "2701"}}, {"type": "node", "id": 9186851550, "lat": 54.3079757, "lon": -4.5492424, "tags": {"bus": "yes", "highway": "bus_stop", "name": "Ballacobb Shelter", "public_transport": "platform", "ref": "2702"}}, {"type": "node", "id": 9186851551, "lat": 54.3099624, "lon": -4.5410206, "tags": {"bus": "yes", "highway": "bus_stop", "name": "Ballaugh Village", "public_transport": "platform", "ref": "2703"}}, {"type": "node", "id": 9186851552, "lat": 54.3099025, "lon": -4.5407079, "tags": {"bus": "yes", "highway": "bus_stop", "name": "Ballaugh Village Shelter", "public_transport": "platform", "ref": "2704"}}, {"type": "node", "id": 9186851554, "lat": 54.3193832, "lon": -4.4923997, "tags": {"bus": "yes", "highway": "bus_stop", "name": "Sulby Glen Hotel", "public_transport": "platform", "ref": "2901"}}, {"type": "node", "id": 9186851555, "lat": 54.3193442, "lon": -4.4922088, "tags": {"bus": "yes", "highway": "bus_stop", "name": "Caley's Sulby Stores", "public_transport": "platform", "ref": "2902"}}, {"type": "node", "id": 9186851556, "lat": 54.3222112, "lon": -4.4804468, "tags": {"bus": "yes", "highway": "bus_stop", "name": "Sulby Village Shelter", "public_transport": "platform", "ref": "2903", "shelter": "yes"}}, {"type": "node", "id": 9186851557, "lat": 54.3222595, "lon": -4.4797968, "tags": {"bus": "yes", "highway": "bus_stop", "name": "Sulby Village", "public_transport": "platform", "ref": "2904"}}, {"type": "node", "id": 9186851558, "lat": 54.3216787, "lon": -4.4715636, "tags": {"bus": "yes", "highway": "bus_stop", "name": "The Ginger Hall", "public_transport": "platform", "ref": "2906"}}, {"type": "node", "id": 9186851559, "lat": 54.3214026, "lon": -4.4714058, "tags": {"bus": "yes", "highway": "bus_stop", "name": "The Ginger Hall Car Park", "public_transport": "platform", "ref": "2908"}}, {"type": "node", "id": 9186851560, "lat": 54.3230433, "lon": -4.4739409, "tags": {"bus": "yes", "highway": "bus_stop", "name": "St. Jude's Road", "public_transport": "platform", "ref": "2908"}}, {"type": "node", "id": 9186866788, "lat": 54.3213265, "lon": -4.4659182, "tags": {"bus": "yes", "highway": "bus_stop", "name": "Kerrowmoar", "public_transport": "platform", "ref": "3001"}}, {"type": "node", "id": 9186866789, "lat": 54.3211807, "lon": -4.4655584, "tags": {"bus": "yes", "highway": "bus_stop", "name": "Kerrowmoar Chapel", "public_transport": "platform", "ref": "3002"}}, {"type": "node", "id": 9186866790, "lat": 54.320142, "lon": -4.4467855, "tags": {"bus": "yes", "highway": "bus_stop", "name": "Glen Duff", "public_transport": "platform", "ref": "3003"}}, {"type": "node", "id": 9186866791, "lat": 54.3196413, "lon": -4.44493, "tags": {"bus": "yes", "highway": "bus_stop", "name": "Glen Duff / D.o.I. Depot", "public_transport": "platform", "ref": "3004"}}, {"type": "node", "id": 9186866792, "lat": 54.318708, "lon": -4.4351207, "tags": {"bus": "yes", "highway": "bus_stop", "name": "Garey Road", "public_transport": "platform", "ref": "3006"}}, {"type": "node", "id": 9186866793, "lat": 54.3184427, "lon": -4.4344062, "tags": {"bus": "yes", "highway": "bus_stop", "name": "Garey Road / Abbey", "public_transport": "platform", "ref": "3006"}}, {"type": "node", "id": 9186866794, "lat": 54.3191912, "lon": -4.4253605, "tags": {"bus": "yes", "highway": "bus_stop", "name": "Silly Moos Campsite", "public_transport": "platform", "ref": "3007"}}, {"type": "node", "id": 9186866795, "lat": 54.3191059, "lon": -4.4239599, "tags": {"bus": "yes", "highway": "bus_stop", "name": "Lezayre War Memorial", "public_transport": "platform", "ref": "3008"}}, {"type": "node", "id": 9186866796, "lat": 54.167305, "lon": -4.4860694, "tags": {"bus": "yes", "highway": "bus_stop", "name": "Ballanard Road / Port-E-Chee", "public_transport": "platform", "ref": "3101"}}, {"type": "node", "id": 9186884904, "lat": 54.1937924, "lon": -4.4254847, "tags": {"bus": "yes", "highway": "bus_stop", "name": "Liverpool Arms Hotel", "public_transport": "platform", "ref": "3307 / 3322"}}, {"type": "node", "id": 9186884905, "lat": 54.1940447, "lon": -4.4240326, "tags": {"bus": "yes", "highway": "bus_stop", "name": "Liverpool Arms Shelter", "network": "Bus Vannin", "public_transport": "platform", "ref": "3308", "shelter": "yes"}}, {"type": "node", "id": 9186884906, "lat": 54.1975412, "lon": -4.4177652, "tags": {"bus": "yes", "highway": "bus_stop", "name": "Ballamenagh Road Junction", "public_transport": "platform", "ref": "3310"}}, {"type": "node", "id": 9186884907, "lat": 54.2017639, "lon": -4.4125281, "tags": {"bus": "yes", "highway": "bus_stop", "name": "Baldrine Methodist Hall", "public_transport": "platform", "ref": "3311"}}, {"type": "node", "id": 9186884908, "lat": 54.2050988, "lon": -4.410408, "tags": {"bus": "yes", "highway": "bus_stop", "name": "Baldrine / The Crescent", "public_transport": "platform", "ref": "3313"}}, {"type": "node", "id": 9186884909, "lat": 54.2043268, "lon": -4.4101337, "tags": {"bus": "yes", "highway": "bus_stop", "name": "Baldrine / Garwick Stores", "public_transport": "platform", "ref": "3314"}}, {"type": "node", "id": 9189720114, "lat": 54.2104752, "lon": -4.6727139, "tags": {"bus": "yes", "highway": "bus_stop", "name": "Ballawyllin Entrance", "public_transport": "platform", "ref": "2401"}}, {"type": "node", "id": 9189720115, "lat": 54.2109671, "lon": -4.6733777, "tags": {"bus": "yes", "highway": "bus_stop", "name": "Ballawyllin", "public_transport": "platform", "ref": "2402"}}, {"type": "node", "id": 9189720116, "lat": 54.217275, "lon": -4.6859542, "tags": {"bus": "yes", "highway": "bus_stop", "name": "Peel Football Club Entrance", "public_transport": "platform", "ref": "2403", "shelter": "no"}}, {"type": "node", "id": 9189749117, "lat": 54.216878, "lon": -4.6850092, "tags": {"bench": "no", "bus": "yes", "departures_board": "no", "highway": "bus_stop", "lit": "no", "name": "Q.E.II High School", "public_transport": "platform", "ref": "2404", "shelter": "no"}}, {"type": "node", "id": 9189749118, "lat": 54.2191653, "lon": -4.6889427, "tags": {"bus": "yes", "highway": "bus_stop", "name": "Tynwald Close Shelter", "public_transport": "platform", "ref": "2406", "shelter": "yes"}}, {"type": "node", "id": 9189749119, "lat": 54.2191914, "lon": -4.6892359, "tags": {"bus": "yes", "highway": "bus_stop", "name": "Tynwald Close", "public_transport": "platform", "ref": "2405"}}, {"type": "node", "id": 9189749120, "lat": 54.2199827, "lon": -4.6914854, "tags": {"bus": "yes", "highway": "bus_stop", "name": "Queens Drive", "public_transport": "platform", "ref": "2407"}}, {"type": "node", "id": 9189749121, "lat": 54.2200109, "lon": -4.6904819, "tags": {"bench": "yes", "bus": "yes", "highway": "bus_stop", "name": "Tynwald Road Shelter", "public_transport": "platform", "ref": "2408", "shelter": "yes"}}, {"type": "node", "id": 9189749122, "lat": 54.221054, "lon": -4.6948524, "tags": {"bus": "yes", "highway": "bus_stop", "name": "Heathfield Drive", "public_transport": "platform", "ref": "2409"}}, {"type": "node", "id": 9189749123, "lat": 54.2218123, "lon": -4.6895478, "tags": {"bench": "no", "bin": "no", "bus": "yes", "highway": "bus_stop", "name": "Albany Road Garage", "public_transport": "platform", "ref": "2410", "shelter": "no"}}, {"type": "node", "id": 9189749124, "lat": 54.222098, "lon": -4.6973927, "tags": {"bus": "yes", "highway": "bus_stop", "name": "House Of Mannanan", "public_transport": "platform", "ref": "2411"}}, {"type": "node", "id": 9189749126, "lat": 54.2245466, "lon": -4.6969244, "tags": {"bus": "yes", "highway": "bus_stop", "name": "The Promenade / Yacht Club", "public_transport": "platform", "ref": "2413"}}, {"type": "node", "id": 9189749127, "lat": 54.2239954, "lon": -4.6920262, "tags": {"bus": "yes", "highway": "bus_stop", "name": "The Promenade / Stanley Road", "public_transport": "platform", "ref": "2415"}}, {"type": "node", "id": 9189749128, "lat": 54.2233376, "lon": -4.6891058, "tags": {"bus": "yes", "highway": "bus_stop", "name": "Empire Garage", "public_transport": "platform", "ref": "2416"}}, {"type": "node", "id": 9189749129, "lat": 54.2246125, "lon": -4.6896136, "tags": {"bus": "yes", "highway": "bus_stop", "name": "The Promenade / Walpole Road", "public_transport": "platform", "ref": "2417"}}, {"type": "node", "id": 9189749130, "lat": 54.2243768, "lon": -4.6851641, "tags": {"bus": "yes", "highway": "bus_stop", "name": "Peveril Road / Mount Morrison Junction", "public_transport": "platform", "ref": "2418"}}, {"type": "node", "id": 9189749131, "lat": 54.2242421, "lon": -4.6851247, "tags": {"bus": "yes", "highway": "bus_stop", "name": "Peveril Road Opposite Mount Morrison", "public_transport": "platform", "ref": "2419"}}, {"type": "node", "id": 9189749132, "lat": 54.2214864, "lon": -4.6805322, "tags": {"bus": "yes", "highway": "bus_stop", "name": "Ballaquane Road Opposite Close Quane", "public_transport": "platform", "ref": "2420"}}, {"type": "node", "id": 9189749133, "lat": 54.2265163, "lon": -4.6772292, "tags": {"bus": "yes", "highway": "bus_stop", "name": "Mourne View Shelter", "public_transport": "platform", "ref": "2426"}}, {"type": "node", "id": 9189749134, "lat": 54.2234838, "lon": -4.6786881, "tags": {"bus": "yes", "highway": "bus_stop", "name": "Ballawattleworth / Rowan Avenue", "public_transport": "platform", "ref": "2428"}}, {"type": "node", "id": 9189749135, "lat": 54.2217235, "lon": -4.687244, "tags": {"bus": "yes", "highway": "bus_stop", "name": "Derby Road / Shoprite", "public_transport": "platform", "ref": "2431"}}, {"type": "node", "id": 9189749136, "lat": 54.2215893, "lon": -4.6870354, "tags": {"bus": "yes", "highway": "bus_stop", "name": "Derby Road No.44", "public_transport": "platform", "ref": "2432"}}, {"type": "node", "id": 9189749137, "lat": 54.2208524, "lon": -4.6828567, "tags": {"bench": "no", "bin": "no", "bus": "yes", "highway": "bus_stop", "lit": "yes", "name": "Derby Road Opposite Campsite", "public_transport": "platform", "ref": "2433", "shelter": "no", "tactile_paving": "no"}}, {"type": "node", "id": 9189749138, "lat": 54.2267718, "lon": -4.6768526, "tags": {"bin": "yes", "bus": "yes", "highway": "bus_stop", "name": "Reayrt Aalin Towards Douglas", "passenger_information_display": "yes", "public_transport": "platform", "ref": "2434"}}, {"type": "node", "id": 9189749139, "lat": 54.2176255, "lon": -4.6971114, "tags": {"bus": "yes", "highway": "bus_stop", "name": "Glenfaba Road / Close Cronk", "public_transport": "platform", "ref": "2435"}}, {"type": "node", "id": 9189749140, "lat": 54.2175098, "lon": -4.6973212, "tags": {"bus": "yes", "highway": "bus_stop", "name": "Glenfaba Road", "public_transport": "platform", "ref": "2436"}}, {"type": "node", "id": 9189749141, "lat": 54.2263343, "lon": -4.6756764, "tags": {"bus": "yes", "highway": "bus_stop", "name": "Ballawattleworth / Barfords", "public_transport": "platform", "ref": "2437"}}, {"type": "node", "id": 9189749142, "lat": 54.2205343, "lon": -4.6949431, "tags": {"bus": "yes", "highway": "bus_stop", "name": "West View Playground", "public_transport": "platform", "ref": "2438"}}, {"type": "node", "id": 9189749143, "lat": 54.219873, "lon": -4.6782246, "tags": {"bus": "yes", "highway": "bus_stop", "name": "Poortown Road Opposite Oak Tree Junction", "public_transport": "platform", "ref": "2441"}}, {"type": "node", "id": 9189749144, "lat": 54.2197746, "lon": -4.6788791, "tags": {"bus": "yes", "highway": "bus_stop", "name": "Poortown Road / Oak Tree Road", "public_transport": "platform", "ref": "2443"}}, {"type": "node", "id": 9189749145, "lat": 54.2210704, "lon": -4.6776498, "tags": {"bench": "no", "bin": "no", "bus": "yes", "highway": "bus_stop", "lit": "yes", "name": "Ballawattleworth Opposite Highwayman", "public_transport": "platform", "ref": "2443", "shelter": "no", "tactile_paving": "no"}}, {"type": "node", "id": 9189749146, "lat": 54.2210677, "lon": -4.6837596, "tags": {"bus": "yes", "highway": "bus_stop", "name": "Derby Road Campsite", "public_transport": "platform", "ref": "2444"}}, {"type": "node", "id": 9189749147, "lat": 54.2263753, "lon": -4.6755524, "tags": {"bus": "yes", "highway": "bus_stop", "name": "Ballawattleworth / McLeod's Field", "public_transport": "platform", "ref": "2445"}}, {"type": "node", "id": 9189749148, "lat": 54.2229638, "lon": -4.67652, "tags": {"bus": "yes", "highway": "bus_stop", "name": "Ballawattleworth / Cushag Drive", "public_transport": "platform", "ref": "2446"}}, {"type": "node", "id": 9189767069, "lat": 54.1683601, "lon": -4.4864174, "tags": {"bus": "yes", "highway": "bus_stop", "name": "Willaston First Stop", "public_transport": "platform", "ref": "3102"}}, {"type": "node", "id": 9189767070, "lat": 54.1708185, "lon": -4.4852647, "tags": {"bus": "yes", "highway": "bus_stop", "name": "Willaston Shops Shelter", "public_transport": "platform", "ref": "3103"}}, {"type": "node", "id": 9189767071, "lat": 54.1717207, "lon": -4.484739, "tags": {"bus": "yes", "highway": "bus_stop", "name": "Keppell Road / Mannin Road", "public_transport": "platform", "ref": "3104"}}, {"type": "node", "id": 9189767072, "lat": 54.173116, "lon": -4.4843009, "tags": {"bus": "yes", "highway": "bus_stop", "name": "Keppell Road No.47", "public_transport": "platform", "ref": "3105"}}, {"type": "node", "id": 9189767073, "lat": 54.1751123, "lon": -4.4816175, "tags": {"bus": "yes", "highway": "bus_stop", "name": "Keppell Road No.95", "public_transport": "platform", "ref": "3106"}}, {"type": "node", "id": 9189767074, "lat": 54.1750534, "lon": -4.4807518, "tags": {"bus": "yes", "highway": "bus_stop", "name": "Snaefell Road / Greeba Road", "public_transport": "platform", "ref": "3107"}}, {"type": "node", "id": 9189767075, "lat": 54.1737701, "lon": -4.4813251, "tags": {"bus": "yes", "highway": "bus_stop", "name": "Snaefell Road No.60", "public_transport": "platform", "ref": "3108"}}, {"type": "node", "id": 9189767076, "lat": 54.1726203, "lon": -4.4823729, "tags": {"bus": "yes", "highway": "bus_stop", "name": "Snaefell Road Shelter", "public_transport": "platform", "ref": "3109"}}, {"type": "node", "id": 9189767077, "lat": 54.1709354, "lon": -4.4816291, "tags": {"bus": "yes", "highway": "bus_stop", "name": "Willaston School Shelter", "public_transport": "platform", "ref": "3110"}}, {"type": "node", "id": 9189767078, "lat": 54.1693073, "lon": -4.4815677, "tags": {"bus": "yes", "highway": "bus_stop", "name": "Tynwald Road Dip", "public_transport": "platform", "ref": "3111"}}, {"type": "node", "id": 9189767079, "lat": 54.1689631, "lon": -4.4822248, "tags": {"bus": "yes", "highway": "bus_stop", "name": "Tynwald Road / Sulby Road", "public_transport": "platform", "ref": "3112"}}, {"type": "node", "id": 9189767080, "lat": 54.1680566, "lon": -4.4844461, "tags": {"bus": "yes", "highway": "bus_stop", "name": "Tynwald Road / Baldwin Road", "public_transport": "platform", "ref": "3113"}}, {"type": "node", "id": 9189767081, "lat": 54.1683725, "lon": -4.4860192, "tags": {"bus": "yes", "highway": "bus_stop", "name": "Barrule Road Shelter", "public_transport": "platform", "ref": "3114"}},