{
  "type": "FeatureCollection",
  "features": [
    {
      "type": "Feature",
      "id": 458783495,
      "geometry": {
        "type": "Point",
        "coordinates": [
          -4.664031,
          54.169354
        ]
      },
      "properties": {
        "historic": "archaeological_site",
        "name": "Cross Vein Lead Mine",
        "source": "Isle of Man Government 1:25000 map (2007)"
      }
    },
    {
      "type": "Feature",
      "id": 475393039,
      "geometry": {
        "type": "Point",
        "coordinates": [
          -4.685159,
          54.147699
        ]
      },
      "properties": {
        "archaeological_site": "tumulus",
        "historic": "archaeological_site",
        "name": "Round Table",
        "name:en": "Round Table",
        "name:gv": "Boaryd Runt",
        "place": "locality",
        "ref:GB:imher": "0093.00",
        "source": "Isle of Man Government 1:25000 map (2007)",
        "url:imher": "https://isleofmanher.im/report/327208fe-71ac-4fb2-a22f-7b0172a2385a"
      }
    },
    {
      "type": "Feature",
      "id": 495102937,
      "geometry": {
        "type": "Point",
        "coordinates": [
          -4.473879,
          54.317391
        ]
      },
      "properties": {
        "access": "yes",
        "archaeological_site": "earthwork",
        "ele": "76",
        "historic": "archaeological_site",
        "name": "Cronk Sumark",
        "natural": "peak",
        "ref:GB:imher": "0450.00",
        "source": "Isle of Man Government 1:25000 map (2007)",
        "url": "http://hillforts.arch.ox.ac.uk/records/IOM3220.html",
        "url:imher": "https://isleofmanher.im/report/e3488c54-4738-49ce-b885-e83c349c1961",
        "wikidata": "Q3003715"
      }
    },
    {
      "type": "Feature",
      "id": 938884284,
      "geometry": {
        "type": "Point",
        "coordinates": [
          -4.497498,
          54.174156
        ]
      },
      "properties": {
        "archaeological_site": "earthwork",
        "historic": "archaeological_site",
        "historic:civilization": "iron-age",
        "name": "Castleward Fort",
        "ref:GB:imher": "0688.00",
        "source": "Isle of Man Government 1:25k map (2007)",
        "url:imher": "https://isleofmanher.im/report/a2276050-1271-48eb-a99e-cda9f662dd28"
      }
    },
    {
      "type": "Feature",
      "id": 1832143308,
      "geometry": {
        "type": "Point",
        "coordinates": [
          -4.394819,
          54.386888
        ]
      },
      "properties": {
        "historic": "archaeological_site",
        "name": "Glentruan (Stone Axe)"
      }
    },
    {
      "type": "Feature",
      "id": 1832153917,
      "geometry": {
        "type": "Point",
        "coordinates": [
          -4.371742,
          54.392768
        ]
      },
      "properties": {
        "fixme": "other side of Lough Cranstal?",
        "historic": "archaeological_site",
        "name": "N.W. end of Logh Cranstal (various flints)"
      }
    },
    {
      "type": "Feature",
      "id": 1833598303,
      "geometry": {
        "type": "Point",
        "coordinates": [
          -4.340495,
          54.284216
        ]
      },
      "properties": {
        "alt_name": "Ruillic ny Quakeryn Burial Ground",
        "alt_name:gv": "Ruillic ny Quakeryn",
        "archaeological_site": "burial",
        "historic": "archaeological_site",
        "name": "Quaker Burial Ground",
        "name:en": "Quaker Burial Ground",
        "name:gv": "Ruillick ny Quakeryn",
        "ref:GB:imher": "0594.00",
        "start_date": "1672",
        "url:imher": "https://isleofmanher.im/report/cd448b28-5ac2-4fa2-8662-7a3db4de2128",
        "website": "https://manxnationalheritage.im/our-sites/ballafayle-cairn/",
        "wikimedia_commons": "File:Quakers burial ground, Maughold. Isle of Man. - geograph.org.uk - 44543.jpg"
      }
    },
    {
      "type": "Feature",
      "id": 1968376236,
      "geometry": {
        "type": "Point",
        "coordinates": [
          -4.469784,
          54.142984
        ]
      },
      "properties": {
        "end_date": "1900",
        "historic": "archaeological_site",
        "historic:civilization": "modern",
        "name": "Warwick Tower",
        "start_date": "1899",
        "tower:type": "observation",
        "url": "http://www.isle-of-man.com/manxnotebook/towns/douglas/wicktwr.htm",
        "url:news": "https://www.manxradio.com/news/isle-of-man-news/victorian-towerand39s-foundations-uncovered/",
        "was:man_made": "tower"
      }
    },
    {
      "type": "Feature",
      "id": 2155263346,
      "geometry": {
        "type": "Point",
        "coordinates": [
          -4.47425,
          54.170668
        ]
      },
      "properties": {
        "historic": "archaeological_site",
        "name": "The White Lady",
        "note": "Bronze Age burial marker and site of a keeill. Cremation urns and graves have been found in the area.",
        "ref:GB:imher": "0240.00",
        "url:imher": "https://isleofmanher.im/report/809e38e8-d701-4bc7-a106-e05d427a0626"
      }
    },
    {
      "type": "Feature",
      "id": 3191020418,
      "geometry": {
        "type": "Point",
        "coordinates": [
          -4.396969,
          54.23117
        ]
      },
      "properties": {
        "archaeological_site": "tomb",
        "historic": "archaeological_site",
        "historic:civilization": "neolithic",
        "name": "Neolithic tomb",
        "note": "Updated location. Source gives camera location as somewhere in the Axnfell woods, but image is of the menhir near King Orry's Grave",
        "source": "wikimedia commons",
        "wikimedia_commons": "File:Neolithic tomb, Isle of Man - geograph.org.uk - 298356.jpg"
      }
    },
    {
      "type": "Feature",
      "id": 4344226092,
      "geometry": {
        "type": "Point",
        "coordinates": [
          -4.340145,
          54.284079
        ]
      },
      "properties": {
        "archaeological_site": "cairn",
        "historic": "archaeological_site",
        "historic:civilization": "neolithic",
        "name": "Ballafayle Cairn",
        "ref:GB:imher": "1078.10",
        "url:imher": "https://isleofmanher.im/report/7fa09618-0e2c-47d0-a58d-affdeca64bb3",
        "website": "https://manxnationalheritage.im/our-sites/ballafayle-cairn/",
        "wikidata": "Q15785357",
        "wikimedia_commons": "File:Ballafayle cairn, Maughold. Isle of Man. - geograph.org.uk - 44534.jpg"
      }
    },
    {
      "type": "Feature",
      "id": 4344300644,
      "geometry": {
        "type": "Point",
        "coordinates": [
          -4.363155,
          54.275459
        ]
      },
      "properties": {
        "archaeological_site": "tomb",
        "historic": "archaeological_site",
        "historic:civilization": "neolithic",
        "name": "Cashtal Yn Ard",
        "name:en": "Castle of the Heights",
        "name:gv": "Cashtal Yn Ard",
        "ref:GB:imher": "0557.00",
        "url:imher": "https://isleofmanher.im/report/382d5db8-c05e-4358-9b71-88db6a93ce9b",
        "wikidata": "Q1047413",
        "wikimedia_commons": "File:Cashtel yn Ard - geograph.org.uk - 774758.jpg"
      }
    },
    {
      "type": "Feature",
      "id": 4344363139,
      "geometry": {
        "type": "Point",
        "coordinates": [
          -4.413052,
          54.206924
        ]
      },
      "properties": {
        "alt_name": "Caishtal",
        "archaeological_site": "fortification",
        "fortification_type": "hill_fort",
        "historic": "archaeological_site",
        "name": "The Cashtal, Ballagawne",
        "wikidata": "Q31118092"
      }
    },
    {
      "type": "Feature",
      "id": 4344363140,
      "geometry": {
        "type": "Point",
        "coordinates": [
          -4.405716,
          54.213756
        ]
      },
      "properties": {
        "access": "private",
        "alt_name": "Kilkillane;Keeill Killane",
        "archaeological_site": "keeil",
        "historic": "archaeological_site",
        "name": "Killkellan",
        "name:gv": "Killkellan",
        "ref:GB:imher": "0657.00",
        "url:imher": "https://isleofmanher.im/report/fab8aae0-5871-4096-8621-3b696298ab48"
      }
    },
    {
      "type": "Feature",
      "id": 5121577962,
      "geometry": {
        "type": "Point",
        "coordinates": [
          -4.411165,
          54.272796
        ]
      },
      "properties": {
        "historic": "archaeological_site",
        "name": "Site of pumping wheel"
      }
    },
    {
      "type": "Feature",
      "id": 5121577963,
      "geometry": {
        "type": "Point",
        "coordinates": [
          -4.415774,
          54.272327
        ]
      },
      "properties": {
        "historic": "archaeological_site",
        "name": "Old Lead Mine"
      }
    },
    {
      "type": "Feature",
      "id": 5121577995,
      "geometry": {
        "type": "Point",
        "coordinates": [
          -4.4123,
          54.272607
        ]
      },
      "properties": {
        "historic": "archaeological_site",
        "name": "Line of old pumping rod"
      }
    },
    {
      "type": "Feature",
      "id": 5121589172,
      "geometry": {
        "type": "Point",
        "coordinates": [
          -4.407853,
          54.273645
        ]
      },
      "properties": {
        "historic": "archaeological_site",
        "name": "Old Lead Mine"
      }
    },
    {
      "type": "Feature",
      "id": 5121638358,
      "geometry": {
        "type": "Point",
        "coordinates": [
          -4.384859,
          54.279113
        ]
      },
      "properties": {
        "historic": "archaeological_site",
        "name": "Old Lead Mine"
      }
    },
    {
      "type": "Feature",
      "id": 5122121747,
      "geometry": {
        "type": "Point",
        "coordinates": [
          -4.657136,
          54.16853
        ]
      },
      "properties": {
        "historic": "archaeological_site",
        "name": "Dixons Vein Lead Mine"
      }
    },
    {
      "type": "Feature",
      "id": 5122148057,
      "geometry": {
        "type": "Point",
        "coordinates": [
          -4.679204,
          54.166759
        ]
      },
      "properties": {
        "historic": "archaeological_site",
        "name": "Beckwith's Vein Lead Mine"
      }
    },
    {
      "type": "Feature",
      "id": 5122183693,
      "geometry": {
        "type": "Point",
        "coordinates": [
          -4.686797,
          54.166076
        ]
      },
      "properties": {
        "fixme": "survey/source",
        "historic": "archaeological_site",
        "name": "Old Lead Mine"
      }
    },
    {
      "type": "Feature",
      "id": 5122193578,
      "geometry": {
        "type": "Point",
        "coordinates": [
          -4.684673,
          54.166127
        ]
      },
      "properties": {
        "fixme": "survey/source",
        "historic": "archaeological_site",
        "name": "Old Lead Mine"
      }
    },
    {
      "type": "Feature",
      "id": 5122211131,
      "geometry": {
        "type": "Point",
        "coordinates": [
          -4.683611,
          54.167973
        ]
      },
      "properties": {
        "historic": "archaeological_site",
        "name": "Old Lead Mine"
      }
    },
    {
      "type": "Feature",
      "id": 5122297134,
      "geometry": {
        "type": "Point",
        "coordinates": [
          -4.536309,
          54.218413
        ]
      },
      "properties": {
        "historic": "archaeological_site",
        "name": "Ardwhallin Slate Quarry",
        "website": "https://www.gov.im/lib/docs/mnh/education/manxmines/4%20MANX%20QUARRIES.pdf"
      }
    },
    {
      "type": "Feature",
      "id": 5123643761,
      "geometry": {
        "type": "Point",
        "coordinates": [
          -4.699602,
          54.204995
        ]
      },
      "properties": {
        "historic": "archaeological_site",
        "name": "Knockaloe WW1 Internment Camp",
        "ref:GB:imher": "9522.00",
        "website": "https://www.knockaloe.im/",
        "wikidata": "Q65090917",
        "wikipedia": "en:Knockaloe Internment Camp"
      }
    },
    {
      "type": "Feature",
      "id": 7028653747,
      "geometry": {
        "type": "Point",
        "coordinates": [
          -4.38453,
          54.334106
        ]
      },
      "properties": {
        "access": "private",
        "alt_name": "Hangman's Hill;Dane's Fort",
        "archaeological_site": "earthwork",
        "description": "Promontory fort (site of). OS Map 1870. Known as Vowlan; Hangman's Hill; Dane's Fort. Excavated by G. Bursu (1946).",
        "historic": "archaeological_site",
        "name": "Vowlan",
        "url": "http://hillforts.arch.ox.ac.uk/records/IOM4223.html",
        "wikidata": "Q31118061"
      }
    },
    {
      "type": "Feature",
      "id": 7771624956,
      "geometry": {
        "type": "Point",
        "coordinates": [
          -4.767725,
          54.072245
        ]
      },
      "properties": {
        "archaeological_site": "tumulus",
        "historic": "archaeological_site",
        "source": "Isle of Man Government 1:25000 map (2007)"
      }
    },
    {
      "type": "Feature",
      "id": 7795215522,
      "geometry": {
        "type": "Point",
        "coordinates": [
          -4.502146,
          54.377886
        ]
      },
      "properties": {
        "archaeological_site": "tumulus",
        "historic": "archaeological_site",
        "source": "Isle of Man Government 1:25000 map (2007)"
      }
    },
    {
      "type": "Feature",
      "id": 8272527013,
      "geometry": {
        "type": "Point",
        "coordinates": [
          -4.610975,
          54.160997
        ]
      },
      "properties": {
        "access": "private",
        "archaeological_site": "burial",
        "historic": "archaeological_site",
        "name": "Giant's Grave Burial Cairn",
        "ref:GB:imher": "0113.00",
        "url:imher": "https://isleofmanher.im/report/730cf12a-e7d1-4616-b9d1-bcd9418aae80"
      }
    },
    {
      "type": "Feature",
      "id": 8298355297,
      "geometry": {
        "type": "Point",
        "coordinates": [
          -4.552389,
          54.140642
        ]
      },
      "properties": {
        "archaeological_site": "church",
        "historic": "archaeological_site",
        "name": "Speke Keeill"
      }
    },
    {
      "type": "Feature",
      "id": 8332283551,
      "geometry": {
        "type": "Point",
        "coordinates": [
          -4.546091,
          54.10346
        ]
      },
      "properties": {
        "archaeological_site": "fortification",
        "historic": "archaeological_site",
        "historic:civilization": "iron-age",
        "name": "Santan Head Promontory Fort",
        "ref:GB:imher": "0766.00",
        "url:imher": "https://isleofmanher.im/report/6b9a0a89-3554-4884-8c77-ad70198ff412"
      }
    },
    {
      "type": "Feature",
      "id": 8336041826,
      "geometry": {
        "type": "Point",
        "coordinates": [
          -4.425503,
          54.31068
        ]
      },
      "properties": {
        "archaeological_site": "tumulus",
        "historic": "archaeological_site"
      }
    },
    {
      "type": "Feature",
      "id": 8336041862,
      "geometry": {
        "type": "Point",
        "coordinates": [
          -4.424982,
          54.311066
        ]
      },
      "properties": {
        "archaeological_site": "tumulus",
        "historic": "archaeological_site"
      }
    },
    {
      "type": "Feature",
      "id": 8340026258,
      "geometry": {
        "type": "Point",
        "coordinates": [
          -4.580401,
          54.169628
        ]
      },
      "properties": {
        "archaeological_site": "chair",
        "historic": "archaeological_site",
        "name": "St Patrick's Chair",
        "ref:GB:imher": "0302.00",
        "url:imher": "https://isleofmanher.im/report/b252ea50-bc55-480b-bee2-85bef7276b7c"
      }
    },
    {
      "type": "Feature",
      "id": 8340026273,
      "geometry": {
        "type": "Point",
        "coordinates": [
          -4.554898,
          54.167769
        ]
      },
      "properties": {
        "access": "private",
        "archaeological_site": "church",
        "historic": "archaeological_site",
        "historic:civilization": "medieval"
      }
    },
    {
      "type": "Feature",
      "id": 8349920228,
      "geometry": {
        "type": "Point",
        "coordinates": [
          -4.514098,
          54.212191
        ]
      },
      "properties": {
        "historic": "archaeological_site",
        "name": "Old Tynwald Hill",
        "name:gv": "Cronk y Keeill Abban",
        "ref:GB:imher": "0723.00",
        "url:imher": "https://isleofmanher.im/report/8ba8fe3a-1f0b-415e-bea4-8276ab183ecd"
      }
    },
    {
      "type": "Feature",
      "id": 8350553897,
      "geometry": {
        "type": "Point",
        "coordinates": [
          -4.563373,
          54.164771
        ]
      },
      "properties": {
        "alt_name": "Keeill Ingan",
        "archaeological_site": "church",
        "historic": "archaeological_site",
        "historic:civilization": "medieval",
        "name": "Keeill Lingan",
        "ref:GB:imher": "0303.00",
        "url:imher": "https://isleofmanher.im/report/422d4a6b-e4b0-4e6e-a622-adebae65e6ff"
      }
    },
    {
      "type": "Feature",
      "id": 8353405755,
      "geometry": {
        "type": "Point",
        "coordinates": [
          -4.53425,
          54.176421
        ]
      },
      "properties": {
        "archaeological_site": "church",
        "historic": "archaeological_site",
        "name": "St Patrick's Chapel",
        "source": "Isle of Man Government 1:25000 map (2007)"
      }
    },
    {
      "type": "Feature",
      "id": 8355615478,
      "geometry": {
        "type": "Point",
        "coordinates": [
          -4.604236,
          54.090901
        ]
      },
      "properties": {
        "archaeological_site": "fortification",
        "historic": "archaeological_site",
        "name": "Cass ny Hawin Promontary Fort",
        "name:gv": "Cass ny Hawin",
        "ref:GB:imher": "0074.00",
        "url:imher": "https://isleofmanher.im/report/8e2518a6-28b9-4adc-a1ab-73e343b20812",
        "wikidata": "Q31119712"
      }
    },
    {
      "type": "Feature",
      "id": 8357248788,
      "geometry": {
        "type": "Point",
        "coordinates": [
          -4.682391,
          54.069925
        ]
      },
      "properties": {
        "archaeological_site": "fortification",
        "historic": "archaeological_site",
        "name": "Close ny Chollag Promontory Fort",
        "name:gv": "Close ny Chollag",
        "wikidata": "Q31103047"
      }
    },
    {
      "type": "Feature",
      "id": 8357701333,
      "geometry": {
        "type": "Point",
        "coordinates": [
          -4.661626,
          54.092834
        ]
      },
      "properties": {
        "archaeological_site": "megalith",
        "fixme": "position needs improving",
        "historic": "archaeological_site",
        "historic:civilization": "prehistoric",
        "megalith_type": "stone_circle",
        "name": "Billown Stone Circle",
        "ref:GB:imher": "0146.00",
        "source": "Isle of Man Government 1:25000 map (2007);Archaeology Data Service",
        "url": "https://archaeologydataservice.ac.uk/archsearch/record?titleId=2872385",
        "url:imher": "https://isleofmanher.im/report/864cd4e2-4d03-4516-95ba-fbad76e01067"
      }
    },
    {
      "type": "Feature",
      "id": 8377085547,
      "geometry": {
        "type": "Point",
        "coordinates": [
          -4.642657,
          54.232193
        ]
      },
      "properties": {
        "archaeological_site": "cairn",
        "historic": "archaeological_site",
        "name": "Lhergydhoo Burial Cairn",
        "ref:GB:imher": "0903.00",
        "source": "Isle of Man Government 1:25000 map (2007)"
      }
    },
    {
      "type": "Feature",
      "id": 8377085555,
      "geometry": {
        "type": "Point",
        "coordinates": [
          -4.648688,
          54.237995
        ]
      },
      "properties": {
        "historic": "archaeological_site",
        "name": "Chapel and Burial Ground (site of)"
      }
    },
    {
      "type": "Feature",
      "id": 8377085558,
      "geometry": {
        "type": "Point",
        "coordinates": [
          -4.600111,
          54.266634
        ]
      },
      "properties": {
        "access": "yes",
        "archaeological_site": "church",
        "historic": "archaeological_site",
        "name": "Cabbal Pherick",
        "name:gv": "Cabbal Pherick",
        "ref:GB:imher": "0856.00",
        "url:imher": "https://isleofmanher.im/report/c164421c-4c85-4266-a8f0-7da72905b8e7"
      }
    },
    {
      "type": "Feature",
      "id": 8377085560,
      "geometry": {
        "type": "Point",
        "coordinates": [
          -4.577586,
          54.245972
        ]
      },
      "properties": {
        "archaeological_site": "burial",
        "historic": "archaeological_site",
        "source": "Isle of Man Government 1:25000 map (2007)"
      }
    },
    {
      "type": "Feature",
      "id": 8377085561,
      "geometry": {
        "type": "Point",
        "coordinates": [
          -4.586111,
          54.237669
        ]
      },
      "properties": {
        "archaeological_site": "church",
        "historic": "archaeological_site",
        "historic:civilization": "medieval",
        "name": "Ballahimmin Keeill",
        "ref:GB:imher": "0984.00",
        "url:imher": "https://isleofmanher.im/report/d7ba23de-1afa-41db-8791-fe235cb5f363"
      }
    },
    {
      "type": "Feature",
      "id": 8377085562,
      "geometry": {
        "type": "Point",
        "coordinates": [
          -4.509812,
          54.254789
        ]
      },
      "properties": {
        "archaeological_site": "stones",
        "historic": "archaeological_site"
      }
    },
    {
      "type": "Feature",
      "id": 8377085632,
      "geometry": {
        "type": "Point",
        "coordinates": [
          -4.532424,
          54.25735
        ]
      },
      "properties": {
        "archaeological_site": "mound",
        "historic": "archaeological_site"
      }
    },
    {
      "type": "Feature",
      "id": 8379282750,
      "geometry": {
        "type": "Point",
        "coordinates": [
          -4.538061,
          54.210127
        ]
      },
      "properties": {
        "archaeological_site": "tumulus",
        "historic": "archaeological_site"
      }
    },
    {
      "type": "Feature",
      "id": 8381026216,
      "geometry": {
        "type": "Point",
        "coordinates": [
          -4.426476,
          54.22345
        ]
      },
      "properties": {
        "archaeological_site": "tumulus",
        "historic": "archaeological_site"
      }
    },
    {
      "type": "Feature",
      "id": 8381031917,
      "geometry": {
        "type": "Point",
        "coordinates": [
          -4.422629,
          54.222398
        ]
      },
      "properties": {
        "archaeological_site": "tumulus",
        "historic": "archaeological_site"
      }
    },
    {
      "type": "Feature",
      "id": 8381031921,
      "geometry": {
        "type": "Point",
        "coordinates": [
          -4.406325,
          54.2293
        ]
      },
      "properties": {
        "access": "private",
        "archaeological_site": "church",
        "historic": "archaeological_site",
        "name": "St Matthew's Chapel",
        "name:en": "St Matthew's Chapel",
        "name:gv": "Keeill Vian",
        "note": "no remains visible on ground",
        "ref:GB:imher": "0658.20",
        "source": "Isle of Man Government 1:25000 map (2007)",
        "url:imher": "https://isleofmanher.im/report/1040fbaa-b47f-4120-951c-6cad0a9fd4eb"
      }
    },
    {
      "type": "Feature",
      "id": 8381031924,
      "geometry": {
        "type": "Point",
        "coordinates": [
          -4.3775,
          54.243149
        ]
      },
      "properties": {
        "archaeological_site": "stone",
        "historic": "archaeological_site",
        "name": "The Spiral Stone"
      }
    },
    {
      "type": "Feature",
      "id": 8381031985,
      "geometry": {
        "type": "Point",
        "coordinates": [
          -4.387277,
          54.231984
        ]
      },
      "properties": {
        "archaeological_site": "church",
        "historic": "archaeological_site"
      }
    },
    {
      "type": "Feature",
      "id": 8381032024,
      "geometry": {
        "type": "Point",
        "coordinates": [
          -4.402943,
          54.189821
        ]
      },
      "properties": {
        "archaeological_site": "tumulus",
        "historic": "archaeological_site"
      }
    },
    {
      "type": "Feature",
      "id": 8381032025,
      "geometry": {
        "type": "Point",
        "coordinates": [
          -4.390985,
          54.197907
        ]
      },
      "properties": {
        "archaeological_site": "mounds",
        "historic": "archaeological_site"
      }
    },
    {
      "type": "Feature",
      "id": 8397757776,
      "geometry": {
        "type": "Point",
        "coordinates": [
          -4.57531,
          54.287801
        ]
      },
      "properties": {
        "archaeological_site": "tumulus",
        "historic": "archaeological_site"
      }
    },
    {
      "type": "Feature",
      "id": 8400798671,
      "geometry": {
        "type": "Point",
        "coordinates": [
          -4.496432,
          54.273319
        ]
      },
      "properties": {
        "historic": "archaeological_site"
      }
    },
    {
      "type": "Feature",
      "id": 8403202637,
      "geometry": {
        "type": "Point",
        "coordinates": [
          -4.559342,
          54.290702
        ]
      },
      "properties": {
        "archaeological_site": "tumulus",
        "historic": "archaeological_site"
      }
    },
    {
      "type": "Feature",
      "id": 8403202638,
      "geometry": {
        "type": "Point",
        "coordinates": [
          -4.524574,
          54.307023
        ]
      },
      "properties": {
        "archaeological_site": "earthwork",
        "historic": "archaeological_site",
        "name": "Cashtal Lajer"
      }
    },
    {
      "type": "Feature",
      "id": 8490480446,
      "geometry": {
        "type": "Point",
        "coordinates": [
          -4.660628,
          54.072456
        ]
      },
      "properties": {
        "archaeological_site": "burial",
        "historic": "archaeological_site",
        "name": "Knock Rushen burial mound"
      }
    },
    {
      "type": "Feature",
      "id": 8494401216,
      "geometry": {
        "type": "Point",
        "coordinates": [
          -4.652431,
          54.178103
        ]
      },
      "properties": {
        "access": "private",
        "archaeological_site": "church",
        "historic": "archaeological_site",
        "name": "St Mary's Chapel and Burial Ground",
        "name:gv": "Keeill Woirrey",
        "note": "see https://manxkeeills.blog/2016/08/29/keeills-and-cake-keeill-woirrey-patrick/"
      }
    },
    {
      "type": "Feature",
      "id": 8494916871,
      "geometry": {
        "type": "Point",
        "coordinates": [
          -4.71335,
          54.122273
        ]
      },
      "properties": {
        "alt_name:gv": "Keeill Woirrey",
        "archaeological_site": "church",
        "historic": "archaeological_site",
        "name": "St Mary's Chapel and Burial Ground",
        "name:gv": "Keeill Moirrey",
        "ref:GB:imher": "0010.00",
        "url:imher": "https://isleofmanher.im/report/397c8a05-fe52-48c7-8e8f-0ea629a47479"
      }
    },
    {
      "type": "Feature",
      "id": 8505053509,
      "geometry": {
        "type": "Point",
        "coordinates": [
          -4.401558,
          54.272888
        ]
      },
      "properties": {
        "archaeological_site": "hut_circle",
        "fixme": "if there is more than one, map them separately and as areas, preferably",
        "historic": "archaeological_site",
        "source": "Isle of Man Government 1:25000 map (2007)"
      }
    },
    {
      "type": "Feature",
      "id": 8536408180,
      "geometry": {
        "type": "Point",
        "coordinates": [
          -4.448001,
          54.227375
        ]
      },
      "properties": {
        "archaeological_site": "tomb",
        "historic": "archaeological_site",
        "tomb": "cist_grave"
      }
    },
    {
      "type": "Feature",
      "id": 8536408187,
      "geometry": {
        "type": "Point",
        "coordinates": [
          -4.440134,
          54.232205
        ]
      },
      "properties": {
        "archaeological_site": "church",
        "historic": "archaeological_site",
        "historic:civilization": "medieval",
        "name": "Ballaquine Keeill",
        "ref:GB:imher": "0653.00"
      }
    },
    {
      "type": "Feature",
      "id": 8555436567,
      "geometry": {
        "type": "Point",
        "coordinates": [
          -4.486673,
          54.241574
        ]
      },
      "properties": {
        "historic": "archaeological_site",
        "name": "Black Rock (site of)",
        "source": "Isle of Man Government 1:25000 map (2007)"
      }
    },
    {
      "type": "Feature",
      "id": 8555436634,
      "geometry": {
        "type": "Point",
        "coordinates": [
          -4.417544,
          54.26106
        ]
      },
      "properties": {
        "archaeological_site": "stones",
        "historic": "archaeological_site"
      }
    },
    {
      "type": "Feature",
      "id": 8555436637,
      "geometry": {
        "type": "Point",
        "coordinates": [
          -4.407312,
          54.250269
        ]
      },
      "properties": {
        "archaeological_site": "tumulus",
        "historic": "archaeological_site"
      }
    },
    {
      "type": "Feature",
      "id": 8555436709,
      "geometry": {
        "type": "Point",
        "coordinates": [
          -4.445488,
          54.267536
        ]
      },
      "properties": {
        "archaeological_site": "cairn",
        "historic": "archaeological_site",
        "name": "Clagh Height Burial Cairn",
        "ref:GB:imher": "0556.00",
        "url:imher": "https://isleofmanher.im/report/c23e13b5-6836-4b27-837b-45a5c9ca6139"
      }
    },
    {
      "type": "Feature",
      "id": 8555436809,
      "geometry": {
        "type": "Point",
        "coordinates": [
          -4.484784,
          54.266627
        ]
      },
      "properties": {
        "archaeological_site": "earthwork",
        "historic": "archaeological_site",
        "name": "Cleigh yn Arragh",
        "name:en": "Bank and Ditch",
        "name:gv": "Cleigh yn Arragh"
      }
    },
    {
      "type": "Feature",
      "id": 8555436810,
      "geometry": {
        "type": "Point",
        "coordinates": [
          -4.459869,
          54.276428
        ]
      },
      "properties": {
        "historic": "archaeological_site"
      }
    },
    {
      "type": "Feature",
      "id": 8555436811,
      "geometry": {
        "type": "Point",
        "coordinates": [
          -4.458259,
          54.276321
        ]
      },
      "properties": {
        "historic": "archaeological_site"
      }
    },
    {
      "type": "Feature",
      "id": 8563979142,
      "geometry": {
        "type": "Point",
        "coordinates": [
          -4.323568,
          54.282019
        ]
      },
      "properties": {
        "archaeological_site": "fortification",
        "historic": "archaeological_site",
        "name": "Gob ny Garvain Promontory Fort",
        "name:gv": "Gob ny Garvain",
        "ref:GB:imher": "0559.00",
        "url:imher": "https://isleofmanher.im/report/189d4f6d-f690-4eed-9cc2-e748d6008920",
        "wikidata": "Q31118076"
      }
    },
    {
      "type": "Feature",
      "id": 8564215130,
      "geometry": {
        "type": "Point",
        "coordinates": [
          -4.331964,
          54.281469
        ]
      },
      "properties": {
        "alt_name": "Keeill Chiggyrt;Keeill Chiggart",
        "archaeological_site": "church",
        "historic": "archaeological_site",
        "name": "Keeill Casherick",
        "name:gv": "Keeill Casherick",
        "ref:GB:imher": "0558.00",
        "url:imher": "https://isleofmanher.im/report/36e35dbc-ae30-4100-b1f2-1507e254a675"
      }
    },
    {
      "type": "Feature",
      "id": 8565502987,
      "geometry": {
        "type": "Point",
        "coordinates": [
          -4.391406,
          54.2404
        ]
      },
      "properties": {
        "archaeological_site": "tumulus",
        "historic": "archaeological_site"
      }
    },
    {
      "type": "Feature",
      "id": 8614850260,
      "geometry": {
        "type": "Point",
        "coordinates": [
          -4.326873,
          54.285116
        ]
      },
      "properties": {
        "alt_name": "Keeill Croit ny Howe",
        "archaeological_site": "church",
        "historic": "archaeological_site",
        "name": "Croit ny Howe Keeill",
        "note": "approx location as per http://www.isle-of-man.com/manxnotebook/history/arch/4rpt/md2.htm",
        "ref:GB:imher": "0612.00",
        "url:imher": "https://isleofmanher.im/report/813a868e-d875-4ce5-9f82-ccff93ab6d27"
      }
    },
    {
      "type": "Feature",
      "id": 8615386954,
      "geometry": {
        "type": "Point",
        "coordinates": [
          -4.495158,
          54.3697
        ]
      },
      "properties": {
        "archaeological_site": "tumulus",
        "historic": "archaeological_site"
      }
    },
    {
      "type": "Feature",
      "id": 8637600509,
      "geometry": {
        "type": "Point",
        "coordinates": [
          -4.589659,
          54.114267
        ]
      },
      "properties": {
        "archaeological_site": "stone",
        "historic": "archaeological_site",
        "name": "Standing stone",
        "source": "Isle of Man Government 1:25000 map (2007)"
      }
    },
    {
      "type": "Feature",
      "id": 8638069104,
      "geometry": {
        "type": "Point",
        "coordinates": [
          -4.396396,
          54.231453
        ]
      },
      "properties": {
        "archaeological_site": "tomb",
        "historic": "archaeological_site",
        "historic:civilization": "neolithic",
        "name": "King Orry's Grave",
        "ref:GB:imher": "1071.00",
        "url:imher": "https://isleofmanher.im/report/e794a2c7-7cc9-401b-a651-b5c5c05b1e97",
        "wikidata": "Q1742056",
        "wikimedia_commons": "File:King Orry's Grave, Laxey.jpg",
        "wikipedia": "en:King Orry's Grave"
      }
    },
    {
      "type": "Feature",
      "id": 8638148057,
      "geometry": {
        "type": "Point",
        "coordinates": [
          -4.41338,
          54.205417
        ]
      },
      "properties": {
        "archaeological_site": "tumulus",
        "historic": "archaeological_site",
        "name": "Cronk-ny-Fannag",
        "source:name": "Isle of Man Government 1:25000 map (2007)"
      }
    },
    {
      "type": "Feature",
      "id": 8674222067,
      "geometry": {
        "type": "Point",
        "coordinates": [
          -4.436849,
          54.271137
        ]
      },
      "properties": {
        "archaeological_site": "cairn",
        "historic": "archaeological_site"
      }
    },
    {
      "type": "Feature",
      "id": 9208513119,
      "geometry": {
        "type": "Point",
        "coordinates": [
          -4.459389,
          54.38998
        ]
      },
      "properties": {
        "alt_name": "Knock y Doonee Keeill",
        "archaeological_site": "church",
        "historic": "archaeological_site",
        "name": "Knock-e-Dhooney Keeill",
        "ref:GB:imher": "0343.00",
        "url:imher": "https://isleofmanher.im/report/190607ac-724d-4b69-88f4-c923e0c3be90",
        "wikimedia_commons": "File:Doonagh Easconn - geograph.org.uk - 570376.jpg"
      }
    },
    {
      "type": "Feature",
      "id": 9208513120,
      "geometry": {
        "type": "Point",
        "coordinates": [
          -4.455367,
          54.389244
        ]
      },
      "properties": {
        "archaeological_site": "burial",
        "historic": "archaeological_site",
        "name": "Knock-e-Dooney Ship Burial",
        "ref:GB:imher": "0344.00",
        "url:imher": "https://isleofmanher.im/report/5d318b8d-4497-4bd2-84a6-845539efac5b"
      }
    },
    {
      "type": "Feature",
      "id": 9233412149,
      "geometry": {
        "type": "Point",
        "coordinates": [
          -4.381741,
          54.315414
        ]
      },
      "properties": {
        "alt_name": "Killeaba Mound",
        "archaeological_site": "burial",
        "historic": "archaeological_site",
        "historic:civilization": "prehistoric",
        "image": "https://www.geograph.org.uk/photo/68211",
        "name": "Killeaba Mount",
        "ref:GB:imher": "0231.00",
        "url:imher": "https://isleofmanher.im/report/7c5e526c-abfd-4121-92f4-f3032bde8d98"
      }
    },
    {
      "type": "Feature",
      "id": 9276026716,
      "geometry": {
        "type": "Point",
        "coordinates": [
          -4.600603,
          54.273457
        ]
      },
      "properties": {
        "archaeological_site": "burial",
        "historic": "archaeological_site"
      }
    },
    {
      "type": "Feature",
      "id": 9289025178,
      "geometry": {
        "type": "Point",
        "coordinates": [
          -4.411213,
          54.393157
        ]
      },
      "properties": {
        "archaeological_site": "tumulus",
        "historic": "archaeological_site",
        "name": "Cronk Bouyr",
        "source": "Isle of Man Government 1:25000 map (2007)"
      }
    },
    {
      "type": "Feature",
      "id": 9289097226,
      "geometry": {
        "type": "Point",
        "coordinates": [
          -4.456604,
          54.366891
        ]
      },
      "properties": {
        "archaeological_site": "tumulus",
        "historic": "archaeological_site",
        "source": "Isle of Man Government 1:25000 map (2007)"
      }
    },
    {
      "type": "Feature",
      "id": 9289097227,
      "geometry": {
        "type": "Point",
        "coordinates": [
          -4.461161,
          54.377981
        ]
      },
      "properties": {
        "archaeological_site": "tumulus",
        "historic": "archaeological_site",
        "source": "Isle of Man Government 1:25000 map (2007)"
      }
    },
    {
      "type": "Feature",
      "id": 9289097230,
      "geometry": {
        "type": "Point",
        "coordinates": [
          -4.390591,
          54.376086
        ]
      },
      "properties": {
        "archaeological_site": "mound",
        "historic": "archaeological_site",
        "source": "Isle of Man Government 1:25000 map (2007)"
      }
    },
    {
      "type": "Feature",
      "id": 9289097231,
      "geometry": {
        "type": "Point",
        "coordinates": [
          -4.478162,
          54.367643
        ]
      },
      "properties": {
        "archaeological_site": "tumulus",
        "historic": "archaeological_site",
        "source": "Isle of Man Government 1:25000 map (2007)"
      }
    },
    {
      "type": "Feature",
      "id": 9289141429,
      "geometry": {
        "type": "Point",
        "coordinates": [
          -4.460343,
          54.383722
        ]
      },
      "properties": {
        "archaeological_site": "tumulus",
        "historic": "archaeological_site",
        "name": "Cronk Ruy",
        "source": "Isle of Man Government 1:25000 map (2007)"
      }
    },
    {
      "type": "Feature",
      "id": 9290026300,
      "geometry": {
        "type": "Point",
        "coordinates": [
          -4.541466,
          54.3552
        ]
      },
      "properties": {
        "archaeological_site": "tumulus",
        "historic": "archaeological_site",
        "source": "Isle of Man Government 1:25000 map (2007)"
      }
    },
    {
      "type": "Feature",
      "id": 9290027852,
      "geometry": {
        "type": "Point",
        "coordinates": [
          -4.48508,
          54.287946
        ]
      },
      "properties": {
        "archaeological_site": "tumulus",
        "historic": "archaeological_site",
        "source": "Isle of Man Government 1:25000 map (2007)"
      }
    },
    {
      "type": "Feature",
      "id": 9294614884,
      "geometry": {
        "type": "Point",
        "coordinates": [
          -4.436245,
          54.387729
        ]
      },
      "properties": {
        "archaeological_site": "tumulus",
        "historic": "archaeological_site",
        "source": "Isle of Man Government 1:25000 map (2007)"
      }
    },
    {
      "type": "Feature",
      "id": 9301468583,
      "geometry": {
        "type": "Point",
        "coordinates": [
          -4.444946,
          54.186091
        ]
      },
      "properties": {
        "archaeological_site": "church",
        "historic": "archaeological_site",
        "historic:civilization": "medieval",
        "name": "St Martin's Chapel and Burial Ground",
        "ref:GB:imher": "0215.00",
        "source": "Isle of Man Government 1:25000 map (2007)",
        "url:imher": "https://isleofmanher.im/report/99414489-41af-4191-b676-db8eb25ded3d"
      }
    },
    {
      "type": "Feature",
      "id": 9318345646,
      "geometry": {
        "type": "Point",
        "coordinates": [
          -4.589158,
          54.186938
        ]
      },
      "properties": {
        "archaeological_site": "tumulus",
        "historic": "archaeological_site",
        "name": "Creg y Whaullian Burial Cairn",
        "ref:GB:imher": "1994.00",
        "source": "Isle of Man Government 1:25000 map (2007)",
        "url:imher": "https://isleofmanher.im/report/e3234421-33b1-4311-8bdb-8193c6f15588"
      }
    },
    {
      "type": "Feature",
      "id": 9952764952,
      "geometry": {
        "type": "Point",
        "coordinates": [
          -4.642437,
          54.204186
        ]
      },
      "properties": {
        "alt_name": "King Orry's Grave",
        "archaeological_site": "tomb",
        "historic": "archaeological_site",
        "name": "The Giant's Grave",
        "ref:GB:imher": "0934.00",
        "url:imher": "https://isleofmanher.im/report/38f14f12-bb6a-4974-aa4a-56303c4892ab",
        "website": "https://culturevannin.im/exploremore/places/giants-grave-st-johns-717696/"
      }
    },
    {
      "type": "Feature",
      "id": 9952764953,
      "geometry": {
        "type": "Point",
        "coordinates": [
          -4.704586,
          54.220811
        ]
      },
      "properties": {
        "archaeological_site": "tomb",
        "historic": "archaeological_site",
        "name": "Round mounds",
        "website": "https://culturevannin.im/exploremore/places/peel-hill-round-mounds-717242/"
      }
    },
    {
      "type": "Feature",
      "id": 10141570928,
      "geometry": {
        "type": "Point",
        "coordinates": [
          -4.631318,
          54.054868
        ]
      },
      "properties": {
        "archaeological_site": "fortification",
        "historic": "archaeological_site",
        "name": "Langness Point Promontory Fort",
        "ref:GB:imher": "1064.00",
        "source": "Isle of Man Government 1:25000 map",
        "url:imher": "https://isleofmanher.im/report/e7694114-5ba0-415a-9766-a1ee9aea9773"
      }
    },
    {
      "type": "Feature",
      "id": 10145032848,
      "geometry": {
        "type": "Point",
        "coordinates": [
          -4.706638,
          54.217305
        ]
      },
      "properties": {
        "archaeological_site": "tumulus",
        "historic": "archaeological_site",
        "source": "Isle of Man Government 1:25000 map (2007)"
      }
    },
    {
      "type": "Feature",
      "id": 10863749870,
      "geometry": {
        "type": "Point",
        "coordinates": [
          -4.447619,
          54.255583
        ]
      },
      "properties": {
        "archaeological_site": "mound",
        "historic": "archaeological_site",
        "note": "marked on Isle of Man Government 1:25000 map as mounds",
        "source": "NLS OS 1:10,560 1949-1968;NLS OS 25 inch Isle of Man VIII.5 & 9 1870"
      }
    },
    {
      "type": "Feature",
      "id": 10863749871,
      "geometry": {
        "type": "Point",
        "coordinates": [
          -4.44783,
          54.255652
        ]
      },
      "properties": {
        "archaeological_site": "mound",
        "historic": "archaeological_site",
        "note": "marked on Isle of Man Government 1:25000 map as mounds",
        "source": "NLS OS 1:10,560 1949-1968;NLS OS 25 inch Isle of Man VIII.5 & 9 1870"
      }
    },
    {
      "type": "Feature",
      "id": 10863749872,
      "geometry": {
        "type": "Point",
        "coordinates": [
          -4.447505,
          54.255798
        ]
      },
      "properties": {
        "archaeological_site": "mound",
        "historic": "archaeological_site",
        "note": "marked on Isle of Man Government 1:25000 map as mounds",
        "source": "NLS OS 1:10,560 1949-1968;NLS OS 25 inch Isle of Man VIII.5 & 9 1870"
      }
    },
    {
      "type": "Feature",
      "id": 10863749873,
      "geometry": {
        "type": "Point",
        "coordinates": [
          -4.447711,
          54.255905
        ]
      },
      "properties": {
        "archaeological_site": "mound",
        "historic": "archaeological_site",
        "note": "marked on Isle of Man Government 1:25000 map as mounds",
        "source": "NLS OS 1:10,560 1949-1968;NLS OS 25 inch Isle of Man VIII.5 & 9 1870"
      }
    },
    {
      "type": "Feature",
      "id": 10863749874,
      "geometry": {
        "type": "Point",
        "coordinates": [
          -4.447425,
          54.256074
        ]
      },
      "properties": {
        "archaeological_site": "mound",
        "historic": "archaeological_site",
        "note": "marked on Isle of Man Government 1:25000 map as mounds",
        "source": "NLS OS 1:10,560 1949-1968;NLS OS 25 inch Isle of Man VIII.5 & 9 1870"
      }
    },
    {
      "type": "Feature",
      "id": 10863749875,
      "geometry": {
        "type": "Point",
        "coordinates": [
          -4.447413,
          54.256171
        ]
      },
      "properties": {
        "archaeological_site": "mound",
        "historic": "archaeological_site",
        "note": "marked on Isle of Man Government 1:25000 map as mounds",
        "source": "NLS OS 1:10,560 1949-1968;NLS OS 25 inch Isle of Man VIII.5 & 9 1870"
      }
    },
    {
      "type": "Feature",
      "id": 10870067068,
      "geometry": {
        "type": "Point",
        "coordinates": [
          -4.60246,
          54.271352
        ]
      },
      "properties": {
        "archaeological_site": "burial",
        "historic": "archaeological_site",
        "source": "NLS OS 1:10,560 1949-1968"
      }
    },
    {
      "type": "Feature",
      "id": 10870067069,
      "geometry": {
        "type": "Point",
        "coordinates": [
          -4.615979,
          54.264143
        ]
      },
      "properties": {
        "archaeological_site": "earthwork",
        "historic": "archaeological_site",
        "source": "NLS OS 1:10,560 1949-1968"
      }
    },
    {
      "type": "Feature",
      "id": 10870067071,
      "geometry": {
        "type": "Point",
        "coordinates": [
          -4.615742,
          54.25599
        ]
      },
      "properties": {
        "archaeological_site": "mound",
        "historic": "archaeological_site",
        "source": "NLS OS 1:10,560 1949-1968"
      }
    },
    {
      "type": "Feature",
      "id": 10870067072,
      "geometry": {
        "type": "Point",
        "coordinates": [
          -4.62846,
          54.251765
        ]
      },
      "properties": {
        "archaeological_site": "stone",
        "historic": "archaeological_site",
        "source": "NLS OS 1:10,560 1949-1968"
      }
    },
    {
      "type": "Feature",
      "id": 10870067074,
      "geometry": {
        "type": "Point",
        "coordinates": [
          -4.594306,
          54.272633
        ]
      },
      "properties": {
        "archaeological_site": "tumulus",
        "historic": "archaeological_site",
        "source": "NLS OS 1:10,560 1949-1968"
      }
    },
    {
      "type": "Feature",
      "id": 10870067075,
      "geometry": {
        "type": "Point",
        "coordinates": [
          -4.593566,
          54.272715
        ]
      },
      "properties": {
        "archaeological_site": "tumulus",
        "historic": "archaeological_site",
        "source": "NLS OS 1:10,560 1949-1968"
      }
    },
    {
      "type": "Feature",
      "id": 10870067076,
      "geometry": {
        "type": "Point",
        "coordinates": [
          -4.5933,
          54.272837
        ]
      },
      "properties": {
        "archaeological_site": "tumulus",
        "historic": "archaeological_site",
        "source": "NLS OS 1:10,560 1949-1968"
      }
    },
    {
      "type": "Feature",
      "id": 10870067077,
      "geometry": {
        "type": "Point",
        "coordinates": [
          -4.577916,
          54.29247
        ]
      },
      "properties": {
        "archaeological_site": "tumulus",
        "historic": "archaeological_site",
        "source": "NLS OS 1:10,560 1949-1968"
      }
    },
    {
      "type": "Feature",
      "id": 11204975117,
      "geometry": {
        "type": "Point",
        "coordinates": [
          -4.378881,
          54.372699
        ]
      },
      "properties": {
        "historic": "archaeological_site",
        "name": "Shellag (Cinerary Urn 1893) approx",
        "source": "Isle of Man Government 1:25000 map"
      }
    },
    {
      "type": "Feature",
      "id": 11204975118,
      "geometry": {
        "type": "Point",
        "coordinates": [
          -4.380218,
          54.366695
        ]
      },
      "properties": {
        "archaeological_site": "tumulus",
        "historic": "archaeological_site",
        "name": "Kionlough Tumulus",
        "source": "nls;OS six inch map (1870);OS 10k map (1940-1972)"
      }
    },
    {
      "type": "Feature",
      "id": 11204975122,
      "geometry": {
        "type": "Point",
        "coordinates": [
          -4.386113,
          54.359171
        ]
      },
      "properties": {
        "archaeological_site": "tumulus",
        "historic": "archaeological_site",
        "source": "nls;OS 10k 1940-1972"
      }
    },
    {
      "type": "Feature",
      "id": 11204989593,
      "geometry": {
        "type": "Point",
        "coordinates": [
          -4.385752,
          54.228213
        ]
      },
      "properties": {
        "archaeological_site": "church",
        "historic": "archaeological_site",
        "source": "nls;OS 10k map (1949-1972)"
      }
    },
    {
      "type": "Feature",
      "id": 11204989595,
      "geometry": {
        "type": "Point",
        "coordinates": [
          -4.400101,
          54.235239
        ]
      },
      "properties": {
        "archaeological_site": "church",
        "historic": "archaeological_site",
        "name": "St Mary's Chapel",
        "name:en": "St Mary's Chapel",
        "name:gv": "Keeill Woirrey",
        "source": "nls;OS 10k map (1949-1972)"
      }
    },
    {
      "type": "Feature",
      "id": 11215356548,
      "geometry": {
        "type": "Point",
        "coordinates": [
          -4.736499,
          54.067964
        ]
      },
      "properties": {
        "archaeological_site": "lime_kiln",
        "historic": "archaeological_site",
        "layer": "-1",
        "material": "stone",
        "ref:GB:imher": "3468.00"
      }
    },
    {
      "type": "Feature",
      "id": 11215356549,
      "geometry": {
        "type": "Point",
        "coordinates": [
          -4.736578,
          54.067807
        ]
      },
      "properties": {
        "archaeological_site": "lime_kiln",
        "historic": "archaeological_site",
        "material": "brick"
      }
    },
    {
      "type": "Feature",
      "id": 11218283261,
      "geometry": {
        "type": "Point",
        "coordinates": [
          -4.629792,
          54.055268
        ]
      },
      "properties": {
        "archaeological_site": "mineral_extraction",
        "historic": "archaeological_site",
        "name": "Langness Mine",
        "ref:GB:imher": "2139.00",
        "url:imher": "https://isleofmanher.im/report/e3a61f5d-dac1-4b53-bf41-19080c58db3a"
      }
    }
  ]
}