{
  "type": "FeatureCollection",
  "features": [
    {
      "type": "Feature",
      "id": 283481023,
      "geometry": {
        "type": "Point",
        "coordinates": [
          -4.581516,
          54.260538
        ]
      },
      "properties": {
        "name": "Barregarrow Crosroads",
        "tourism": "attraction"
      }
    },
    {
      "type": "Feature",
      "id": 283481474,
      "geometry": {
        "type": "Point",
        "coordinates": [
          -4.587981,
          54.281162
        ]
      },
      "properties": {
        "name": "Douglas Corner",
        "tourism": "attraction"
      }
    },
    {
      "type": "Feature",
      "id": 283484388,
      "geometry": {
        "type": "Point",
        "coordinates": [
          -4.474324,
          54.187954
        ]
      },
      "properties": {
        "name": "Hillberry Corner",
        "tourism": "attraction",
        "wikidata": "Q5762625",
        "wikipedia": "en:Hillberry Corner"
      }
    },
    {
      "type": "Feature",
      "id": 283486904,
      "geometry": {
        "type": "Point",
        "coordinates": [
          -4.563242,
          54.303586
        ]
      },
      "properties": {
        "name": "Dub Cottage",
        "tourism": "attraction"
      }
    },
    {
      "type": "Feature",
      "id": 283488031,
      "geometry": {
        "type": "Point",
        "coordinates": [
          -4.676176,
          54.09106
        ]
      },
      "properties": {
        "name": "Iron Gates",
        "tourism": "attraction"
      }
    },
    {
      "type": "Feature",
      "id": 283488566,
      "geometry": {
        "type": "Point",
        "coordinates": [
          -4.729075,
          54.103678
        ]
      },
      "properties": {
        "tourism": "picnic_site"
      }
    },
    {
      "type": "Feature",
      "id": 283494345,
      "geometry": {
        "type": "Point",
        "coordinates": [
          -4.386679,
          54.322196
        ]
      },
      "properties": {
        "name": "Parliament Square",
        "tourism": "attraction",
        "wikidata": "Q7138921",
        "wikipedia": "en:Parliament Square, Ramsey"
      }
    },
    {
      "type": "Feature",
      "id": 283495997,
      "geometry": {
        "type": "Point",
        "coordinates": [
          -4.656045,
          54.080779
        ]
      },
      "properties": {
        "name": "Stadium Bends",
        "tourism": "attraction"
      }
    },
    {
      "type": "Feature",
      "id": 283500649,
      "geometry": {
        "type": "Point",
        "coordinates": [
          -4.64281,
          54.203791
        ]
      },
      "properties": {
        "direction": "270",
        "tourism": "viewpoint"
      }
    },
    {
      "type": "Feature",
      "id": 283500807,
      "geometry": {
        "type": "Point",
        "coordinates": [
          -4.516311,
          54.166899
        ]
      },
      "properties": {
        "name": "Snugborough",
        "tourism": "attraction"
      }
    },
    {
      "type": "Feature",
      "id": 283501121,
      "geometry": {
        "type": "Point",
        "coordinates": [
          -4.606389,
          54.271737
        ]
      },
      "properties": {
        "tourism": "picnic_site"
      }
    },
    {
      "type": "Feature",
      "id": 283504477,
      "geometry": {
        "type": "Point",
        "coordinates": [
          -4.383706,
          54.316953
        ]
      },
      "properties": {
        "name": "Whitegates",
        "tourism": "attraction",
        "wikidata": "Q7995941",
        "wikipedia": "en:Whitegates, Isle of Man"
      }
    },
    {
      "type": "Feature",
      "id": 283505662,
      "geometry": {
        "type": "Point",
        "coordinates": [
          -4.592881,
          54.282114
        ]
      },
      "properties": {
        "name": "Glen Wyllin",
        "postal_code": "IM6 1AL",
        "tourism": "camp_site",
        "website": "https://www.isleofman.com/Business/g/glenwyllin"
      }
    },
    {
      "type": "Feature",
      "id": 283509592,
      "geometry": {
        "type": "Point",
        "coordinates": [
          -4.676042,
          54.097076
        ]
      },
      "properties": {
        "name": "Ballabeg Hairpin",
        "tourism": "attraction"
      }
    },
    {
      "type": "Feature",
      "id": 283514446,
      "geometry": {
        "type": "Point",
        "coordinates": [
          -4.477245,
          54.16834
        ]
      },
      "properties": {
        "description": "The starting line of the famous Isle of Man TT (Tourist Trophy) Races",
        "name": "Tourist Trophy course start line",
        "tourism": "attraction"
      }
    },
    {
      "type": "Feature",
      "id": 283516992,
      "geometry": {
        "type": "Point",
        "coordinates": [
          -4.655893,
          54.078401
        ]
      },
      "properties": {
        "name": "Castletown Corner",
        "tourism": "attraction"
      }
    },
    {
      "type": "Feature",
      "id": 283517384,
      "geometry": {
        "type": "Point",
        "coordinates": [
          -4.496421,
          54.318443
        ]
      },
      "properties": {
        "name": "Caley's",
        "tourism": "attraction"
      }
    },
    {
      "type": "Feature",
      "id": 283519166,
      "geometry": {
        "type": "Point",
        "coordinates": [
          -4.483925,
          54.165269
        ]
      },
      "properties": {
        "name": "St Ninian's Crossroads",
        "tourism": "attraction",
        "wikidata": "Q5187110",
        "wikipedia": "en:St Ninian's Crossroads"
      }
    },
    {
      "type": "Feature",
      "id": 283519410,
      "geometry": {
        "type": "Point",
        "coordinates": [
          -4.526437,
          54.312146
        ]
      },
      "properties": {
        "name": "Ballacrye Corner",
        "tourism": "attraction",
        "wikidata": "Q4851318",
        "wikipedia": "en:Ballacrye Corner"
      }
    },
    {
      "type": "Feature",
      "id": 283519596,
      "geometry": {
        "type": "Point",
        "coordinates": [
          -4.652849,
          54.086742
        ]
      },
      "properties": {
        "name": "Great Meadow",
        "place": "hamlet",
        "tourism": "attraction"
      }
    },
    {
      "type": "Feature",
      "id": 283519855,
      "geometry": {
        "type": "Point",
        "coordinates": [
          -4.566098,
          54.183878
        ]
      },
      "properties": {
        "name": "Crosby Crossroads",
        "tourism": "attraction",
        "wikidata": "Q5188028"
      }
    },
    {
      "type": "Feature",
      "id": 283520110,
      "geometry": {
        "type": "Point",
        "coordinates": [
          -4.674371,
          54.083205
        ]
      },
      "properties": {
        "name": "Ballakaighen",
        "tourism": "attraction"
      }
    },
    {
      "type": "Feature",
      "id": 283522771,
      "geometry": {
        "type": "Point",
        "coordinates": [
          -4.740051,
          54.163854
        ]
      },
      "properties": {
        "name": "Niarbyl",
        "place": "hamlet",
        "tourism": "viewpoint",
        "wikidata": "Q11171886",
        "wikipedia": "en:Niarbyl, Isle of Man"
      }
    },
    {
      "type": "Feature",
      "id": 283523051,
      "geometry": {
        "type": "Point",
        "coordinates": [
          -4.471592,
          54.177588
        ]
      },
      "properties": {
        "alt_name": "The Nook",
        "fixme": "check names",
        "name": "Bedstead Corner",
        "tourism": "attraction",
        "wikidata": "Q7754297",
        "wikipedia": "en:The Nook, Isle of Man"
      }
    },
    {
      "type": "Feature",
      "id": 283524120,
      "geometry": {
        "type": "Point",
        "coordinates": [
          -4.381138,
          54.307727
        ]
      },
      "properties": {
        "name": "Tower Bends",
        "tourism": "attraction",
        "wikidata": "Q7829630",
        "wikipedia": "en:Tower Bends"
      }
    },
    {
      "type": "Feature",
      "id": 300040027,
      "geometry": {
        "type": "Point",
        "coordinates": [
          -4.763526,
          54.104395
        ]
      },
      "properties": {
        "ele": "234",
        "name": "Bradda Hill",
        "natural": "peak",
        "tourism": "viewpoint",
        "wikidata": "Q2923459",
        "wikipedia": "en:Bradda Hill"
      }
    },
    {
      "type": "Feature",
      "id": 347335439,
      "geometry": {
        "type": "Point",
        "coordinates": [
          -4.381617,
          54.312694
        ]
      },
      "properties": {
        "tourism": "viewpoint"
      }
    },
    {
      "type": "Feature",
      "id": 448463229,
      "geometry": {
        "type": "Point",
        "coordinates": [
          -4.629509,
          54.20319
        ]
      },
      "properties": {
        "name": "Ballacraine",
        "name:en": "Ballacraine",
        "name:gv": "Balley Craine",
        "place": "hamlet",
        "tourism": "attraction",
        "wikidata": "Q4851317",
        "wikipedia": "en:Ballacraine"
      }
    },
    {
      "type": "Feature",
      "id": 453426276,
      "geometry": {
        "type": "Point",
        "coordinates": [
          -4.479984,
          54.160713
        ]
      },
      "properties": {
        "addr:country": "IM",
        "addr:housenumber": "27",
        "addr:street": "Hutchinson Square",
        "internet_access": "wlan",
        "internet_access:fee": "no",
        "name": "Wicklow Hills",
        "postal_code": "IM2 4HP",
        "tourism": "guest_house",
        "website": "https://www.wicklowhills.com/"
      }
    },
    {
      "type": "Feature",
      "id": 458533095,
      "geometry": {
        "type": "Point",
        "coordinates": [
          -4.47776,
          54.186962
        ]
      },
      "properties": {
        "name": "Glen Dhoo",
        "postal_code": "IM4 5BJ",
        "source": "Isle of Man Government 1:25000 map (2007)",
        "tourism": "camp_site",
        "website": "https://www.caravancampingsites.co.uk/isleofman/glendhoo.htm"
      }
    },
    {
      "type": "Feature",
      "id": 458533098,
      "geometry": {
        "type": "Point",
        "coordinates": [
          -4.470014,
          54.179767
        ]
      },
      "properties": {
        "name": "Signpost Corner",
        "source": "Isle of Man Government 1:25000 map (2007)",
        "tourism": "attraction",
        "wikidata": "Q7513018",
        "wikipedia": "en:Signpost Corner, Isle of Man"
      }
    },
    {
      "type": "Feature",
      "id": 458533108,
      "geometry": {
        "type": "Point",
        "coordinates": [
          -4.485334,
          54.164247
        ]
      },
      "properties": {
        "name": "Bray Hill",
        "source": "Isle of Man Government 1:25000 map (2007)",
        "tourism": "attraction",
        "wikidata": "Q3389200",
        "wikipedia": "en:Bray Hill"
      }
    },
    {
      "type": "Feature",
      "id": 458533119,
      "geometry": {
        "type": "Point",
        "coordinates": [
          -4.549038,
          54.173804
        ]
      },
      "properties": {
        "name": "Ballagarey Corner",
        "tourism": "attraction",
        "wikidata": "Q4851392",
        "wikipedia": "en:Ballagarey Corner, Isle of Man"
      }
    },
    {
      "type": "Feature",
      "id": 458533125,
      "geometry": {
        "type": "Point",
        "coordinates": [
          -4.605775,
          54.196848
        ]
      },
      "properties": {
        "name": "Greeba Bridge",
        "place": "locality",
        "source": "Isle of Man Government 1:25000 map (2007)",
        "tourism": "attraction",
        "wikidata": "Q5601577",
        "wikipedia": "en:Greeba Bridge"
      }
    },
    {
      "type": "Feature",
      "id": 459976551,
      "geometry": {
        "type": "Point",
        "coordinates": [
          -4.394921,
          54.332103
        ]
      },
      "properties": {
        "addr:city": "Ramsey",
        "addr:postcode": "IM8 3UA",
        "addr:street": "Andreas Road",
        "fee": "yes",
        "name": "The Grove Museum",
        "name:gv": "Thie Tashtee 'Yn Chell'",
        "operator": "Manx National Heritage",
        "tourism": "museum",
        "website": "https://manxnationalheritage.im/our-sites/grove-museum-of-victorian-life/"
      }
    },
    {
      "type": "Feature",
      "id": 475392854,
      "geometry": {
        "type": "Point",
        "coordinates": [
          -4.443333,
          54.278359
        ]
      },
      "properties": {
        "name": "Mountain Box",
        "place": "locality",
        "source": "Isle of Man Government 1:25000 map (2007)",
        "tourism": "attraction"
      }
    },
    {
      "type": "Feature",
      "id": 475392873,
      "geometry": {
        "type": "Point",
        "coordinates": [
          -4.472337,
          54.331778
        ]
      },
      "properties": {
        "name": "Close Chairn Cottages",
        "postal_code": "IM7 2ES",
        "source": "Isle of Man Government 1:25000 map (2007)",
        "tourism": "chalet",
        "website": "http://www.closechairn.co.uk"
      }
    },
    {
      "type": "Feature",
      "id": 475392887,
      "geometry": {
        "type": "Point",
        "coordinates": [
          -4.536645,
          54.337255
        ]
      },
      "properties": {
        "addr:city": "Ballaugh",
        "addr:housename": "White Gables",
        "addr:postcode": "IM7 5BG",
        "addr:street": "Old Windmill Road",
        "name": "White Gables Cottage",
        "source": "Isle of Man Government 1:25000 map (2007)",
        "tourism": "chalet",
        "website": "https://www.visitisleofman.com/accommodation/white-gables-cottage-p1290711"
      }
    },
    {
      "type": "Feature",
      "id": 475392931,
      "geometry": {
        "type": "Point",
        "coordinates": [
          -4.660284,
          54.228388
        ]
      },
      "properties": {
        "addr:city": "Peel",
        "addr:country": "IM",
        "addr:housename": "Langtoft Manor",
        "addr:postcode": "IM5 2AD",
        "addr:street": "Ballagyr Lane",
        "guest_house": "bed_and_breakfast",
        "name": "Langtoft Manor",
        "place": "farm",
        "source": "Isle of Man Government 1:25000 map (2007);ACSI",
        "tourism": "guest_house",
        "website": "https://www.peel-holidays.com/"
      }
    },
    {
      "type": "Feature",
      "id": 475393099,
      "geometry": {
        "type": "Point",
        "coordinates": [
          -4.577194,
          54.266368
        ]
      },
      "properties": {
        "addr:country": "IM",
        "addr:street": "Douglas Road",
        "name": "Cammall Farm",
        "place": "farm",
        "postal_code": "IM6 1AW",
        "source": "Isle of Man Government 1:25000 map (2007)",
        "tourism": "chalet",
        "website": "http://www.cammallfarm.co.uk"
      }
    },
    {
      "type": "Feature",
      "id": 475393389,
      "geometry": {
        "type": "Point",
        "coordinates": [
          -4.53512,
          54.307444
        ]
      },
      "properties": {
        "name": "Ballamoar Farm",
        "name:en": "Ballamoar Farm",
        "name:gv": "Ballamoar",
        "phone": "+44 1624 897442",
        "place": "farm",
        "postal_code": "IM7 5EE",
        "source": "Isle of Man Government 1:25000 map (2007)",
        "tourism": "camp_site",
        "website": "http://www.ballamoar.com"
      }
    },
    {
      "type": "Feature",
      "id": 475393405,
      "geometry": {
        "type": "Point",
        "coordinates": [
          -4.703765,
          54.20924
        ]
      },
      "properties": {
        "fixme": "label individual buildings as B&B, self catering, etc.",
        "guest_house": "bed_and_breakfast",
        "name": "Knockaloe Beg",
        "place": "farm",
        "postal_code": "IM5 3AQ",
        "source": "Isle of Man Government 1:25000 map (2007)",
        "tourism": "guest_house",
        "website": "https://www.knockaloebegfarm.com"
      }
    },
    {
      "type": "Feature",
      "id": 475393738,
      "geometry": {
        "type": "Point",
        "coordinates": [
          -4.609348,
          54.138143
        ]
      },
      "properties": {
        "name": "Dreemfroy",
        "place": "farm",
        "postal_code": "IM9 3AW",
        "source": "Isle of Man Government 1:25000 map (2007)",
        "tourism": "chalet",
        "website": "https://www.dreemfroy.com/"
      }
    },
    {
      "type": "Feature",
      "id": 475393766,
      "geometry": {
        "type": "Point",
        "coordinates": [
          -4.476838,
          54.195459
        ]
      },
      "properties": {
        "alt_name": "Brandish Corner",
        "name": "Brandish",
        "old_name": "Upper-Hillberry Corner;Telegraph Hill",
        "place": "locality",
        "source": "Isle of Man Government 1:25000 map (2007)",
        "tourism": "attraction",
        "wikidata": "Q4956708",
        "wikipedia": "en:Brandish Corner"
      }
    },
    {
      "type": "Feature",
      "id": 475393870,
      "geometry": {
        "type": "Point",
        "coordinates": [
          -4.628717,
          54.172099
        ]
      },
      "properties": {
        "name": "Kionslieu Farm Cottages",
        "postal_code": "IM4 3HB",
        "source": "Isle of Man Government 1:25000 map (2007)",
        "tourism": "chalet",
        "website": "https://www.iomfarmholidays.com/"
      }
    },
    {
      "type": "Feature",
      "id": 475393909,
      "geometry": {
        "type": "Point",
        "coordinates": [
          -4.471415,
          54.230899
        ]
      },
      "properties": {
        "name": "Windy Corner",
        "place": "locality",
        "source": "Isle of Man Government 1:25000 map (2007)",
        "tourism": "attraction"
      }
    },
    {
      "type": "Feature",
      "id": 475393925,
      "geometry": {
        "type": "Point",
        "coordinates": [
          -4.467374,
          54.20715
        ]
      },
      "properties": {
        "name": "Creg-ny-baa",
        "place": "locality",
        "source": "Isle of Man Government 1:25000 map (2007)",
        "tourism": "attraction",
        "wikidata": "Q5183966",
        "wikipedia": "en:Creg-ny-Baa, Isle of Man"
      }
    },
    {
      "type": "Feature",
      "id": 475393967,
      "geometry": {
        "type": "Point",
        "coordinates": [
          -4.589538,
          54.234365
        ]
      },
      "properties": {
        "addr:country": "IM",
        "addr:housename": "Mullen Rhenass House",
        "addr:place": "Cronk-y-Voddy",
        "addr:postcode": "IM6 1BB",
        "currency:GBP": "yes",
        "description": "Christian retreat, arts centre, and spa",
        "email": "hello@rhenassretreat.org.uk",
        "name": "Rhenass Christian Retreat",
        "name:en": "Rhenass Christian Retreat",
        "name:gv": "Mullen Rhenass",
        "phone": "+441624878474",
        "source": "Isle of Man Government 1:25000 map (2007)",
        "survey:date": "2022-10-03",
        "tourism": "hotel",
        "website": "https://www.rhenassretreat.org.uk/"
      }
    },
    {
      "type": "Feature",
      "id": 475394021,
      "geometry": {
        "type": "Point",
        "coordinates": [
          -4.622247,
          54.109051
        ]
      },
      "properties": {
        "name": "Blackhill",
        "place": "farm",
        "source": "Isle of Man Government 1:25000 map (2007)",
        "tourism": "guest_house"
      }
    },
    {
      "type": "Feature",
      "id": 475394051,
      "geometry": {
        "type": "Point",
        "coordinates": [
          -4.65695,
          54.200958
        ]
      },
      "properties": {
        "name": "Ballaspit",
        "place": "farm",
        "source": "Isle of Man Government 1:25000 map (2007)",
        "tourism": "camp_site"
      }
    },
    {
      "type": "Feature",
      "id": 475394744,
      "geometry": {
        "type": "Point",
        "coordinates": [
          -4.651506,
          54.106954
        ]
      },
      "properties": {
        "addr:country": "IM",
        "addr:street": "Grenaby Road",
        "name": "Ballavell Farm",
        "place": "farm",
        "postal_code": "IM9 3DP",
        "source": "Isle of Man Government 1:25000 map (2007)",
        "tourism": "guest_house",
        "website": "http://www.ballavellfarm.net"
      }
    },
    {
      "type": "Feature",
      "id": 475395126,
      "geometry": {
        "type": "Point",
        "coordinates": [
          -4.457449,
          54.37667
        ]
      },
      "properties": {
        "name": "Leodest Farm",
        "place": "farm",
        "postal_code": "IM7 3EG",
        "source": "Isle of Man Government 1:25000 map (2007)",
        "tourism": "guest_house",
        "website": "http://www.leodestfarm.co.uk"
      }
    },
    {
      "type": "Feature",
      "id": 475395150,
      "geometry": {
        "type": "Point",
        "coordinates": [
          -4.616811,
          54.225739
        ]
      },
      "properties": {
        "name": "Glen Helen",
        "place": "locality",
        "source": "Isle of Man Government 1:25000 map (2007)",
        "tourism": "attraction",
        "wikidata": "Q5567809",
        "wikipedia": "en:Glen Helen, Isle of Man"
      }
    },
    {
      "type": "Feature",
      "id": 475395188,
      "geometry": {
        "type": "Point",
        "coordinates": [
          -4.476031,
          54.18342
        ]
      },
      "properties": {
        "name": "Cronk-ny-mona",
        "name:gv": "Cronk-ny-mona",
        "place": "locality",
        "source": "Isle of Man Government 1:25000 map (2007)",
        "tourism": "attraction"
      }
    },
    {
      "type": "Feature",
      "id": 476150218,
      "geometry": {
        "type": "Point",
        "coordinates": [
          -4.474519,
          54.161805
        ]
      },
      "properties": {
        "addr:city": "Douglas",
        "addr:country": "IM",
        "addr:housenumber": "7",
        "addr:street": "Empire Terrace",
        "name": "Ascot Hotel",
        "postal_code": "IM2 4LE",
        "tourism": "hotel",
        "website": "https://www.hotel-ascot.co.uk/"
      }
    },
    {
      "type": "Feature",
      "id": 476150222,
      "geometry": {
        "type": "Point",
        "coordinates": [
          -4.475035,
          54.161275
        ]
      },
      "properties": {
        "addr:country": "IM",
        "addr:street": "Mona Drive",
        "name": "Welbeck Hotel",
        "phone": "+44 1624 675663",
        "postal_code": "IM2 4LF",
        "toilets:wheelchair": "yes",
        "tourism": "hotel",
        "website": "https://www.welbeckhotel.com/",
        "wheelchair": "yes"
      }
    },
    {
      "type": "Feature",
      "id": 476150244,
      "geometry": {
        "type": "Point",
        "coordinates": [
          -4.469476,
          54.16358
        ]
      },
      "properties": {
        "addr:city": "Douglas",
        "addr:country": "IM",
        "addr:housenumber": "15-16",
        "addr:postcode": "IM2 4NE",
        "addr:street": "Queens Promenade",
        "addr:substreet": "Palace Terrace",
        "internet_access": "wlan",
        "internet_access:fee": "no",
        "name": "Penta Hotel",
        "postal_code": "IM2 4NP",
        "tourism": "hotel",
        "website": "https://www.penta.im"
      }
    },
    {
      "type": "Feature",
      "id": 476184704,
      "geometry": {
        "type": "Point",
        "coordinates": [
          -4.438508,
          54.366888
        ]
      },
      "properties": {
        "addr:city": "Andreas",
        "addr:country": "IM",
        "addr:street": "Andreas Road",
        "name": "Ballacottier Beg",
        "postal_code": "IM7 4EP",
        "tourism": "chalet"
      }
    },
    {
      "type": "Feature",
      "id": 477370931,
      "geometry": {
        "type": "Point",
        "coordinates": [
          -4.491632,
          54.289476
        ]
      },
      "properties": {
        "name": "Killeabraegga Cottage",
        "tourism": "chalet",
        "website": "https://www.isleofmancottage.com/"
      }
    },
    {
      "type": "Feature",
      "id": 477372456,
      "geometry": {
        "type": "Point",
        "coordinates": [
          -4.510566,
          54.350427
        ]
      },
      "properties": {
        "name": "The Swiss Chalet",
        "postal_code": "IM7 3AJ",
        "tourism": "chalet",
        "website": "http://www.the-swiss-chalet.com"
      }
    },
    {
      "type": "Feature",
      "id": 478680057,
      "geometry": {
        "type": "Point",
        "coordinates": [
          -4.474906,
          54.161386
        ]
      },
      "properties": {
        "addr:city": "Douglas",
        "addr:country": "IM",
        "addr:housenumber": "1",
        "addr:street": "Empire Terrace",
        "internet_access": "wlan",
        "internet_access:fee": "no",
        "name": "Mereside",
        "postal_code": "IM2 4LE",
        "tourism": "hotel",
        "website": "https://www.hqbar.im/mereside.php"
      }
    },
    {
      "type": "Feature",
      "id": 478680058,
      "geometry": {
        "type": "Point",
        "coordinates": [
          -4.4744,
          54.161215
        ]
      },
      "properties": {
        "addr:city": "Douglas",
        "addr:country": "IM",
        "addr:housename": "Glen Mona",
        "addr:housenumber": "6",
        "addr:street": "Mona Drive",
        "internet_access": "wlan",
        "name": "Glen Mona",
        "postal_code": "IM2 4LE",
        "tourism": "guest_house",
        "website": "https://www.hqbar.im/glenmona.php"
      }
    },
    {
      "type": "Feature",
      "id": 480448003,
      "geometry": {
        "type": "Point",
        "coordinates": [
          -4.453893,
          54.181641
        ]
      },
      "properties": {
        "addr:country": "IM",
        "addr:street": "Little Mill Road",
        "name": "Mullen Beg",
        "postal_code": "IM4 5BD",
        "tourism": "guest_house",
        "website": "http://www.mullenbeg.com"
      }
    },
    {
      "type": "Feature",
      "id": 492450565,
      "geometry": {
        "type": "Point",
        "coordinates": [
          -4.567975,
          54.192537
        ]
      },
      "properties": {
        "name": "Ballavitchel Farm",
        "postal_code": "IM4 2DL",
        "tourism": "chalet",
        "website": "http://www.ballavitchel.com"
      }
    },
    {
      "type": "Feature",
      "id": 492916887,
      "geometry": {
        "type": "Point",
        "coordinates": [
          -4.637253,
          54.118489
        ]
      },
      "properties": {
        "name": "Ballachrink Barn Cottages",
        "postal_code": "IM9 3ES",
        "tourism": "chalet",
        "website": "http://www.barncottagesisleofman.com"
      }
    },
    {
      "type": "Feature",
      "id": 492916892,
      "geometry": {
        "type": "Point",
        "coordinates": [
          -4.614197,
          54.143371
        ]
      },
      "properties": {
        "name": "Edd Gollan Geayee",
        "postal_code": "IM9 3AJ",
        "tourism": "chalet",
        "website": "https://www.eddgollangeayee.co.uk/"
      }
    },
    {
      "type": "Feature",
      "id": 496611444,
      "geometry": {
        "type": "Point",
        "coordinates": [
          -4.477712,
          54.384578
        ]
      },
      "properties": {
        "name": "Ballathona Farm",
        "postal_code": "IM7 3EH",
        "tourism": "guest_house"
      }
    },
    {
      "type": "Feature",
      "id": 502292309,
      "geometry": {
        "type": "Point",
        "coordinates": [
          -4.475513,
          54.160812
        ]
      },
      "properties": {
        "addr:city": "Douglas",
        "addr:country": "IM",
        "addr:housename": "Seaview Hotel",
        "addr:housenumber": "12;13;15",
        "addr:street": "Empress Drive",
        "fixme": "planning permission has been granted for conversion into holiday apartments - re-check in future",
        "name": "Seaview Hotel",
        "postal_code": "IM2 4LQ",
        "tourism": "hotel",
        "website": "http://www.seaview.co.im/"
      }
    },
    {
      "type": "Feature",
      "id": 502292316,
      "geometry": {
        "type": "Point",
        "coordinates": [
          -4.40022,
          54.221071
        ]
      },
      "properties": {
        "addr:city": "Laxey",
        "addr:country": "IM",
        "addr:street": "Pinfold Hill",
        "name": "Pinfold Cottage",
        "postal_code": "IM4 7HN",
        "tourism": "chalet",
        "website": "https://www.pinfoldholidaycottage.com/"
      }
    },
    {
      "type": "Feature",
      "id": 502490905,
      "geometry": {
        "type": "Point",
        "coordinates": [
          -4.479197,
          54.16027
        ]
      },
      "properties": {
        "addr:city": "Douglas",
        "addr:country": "IM",
        "addr:housenumber": "39",
        "addr:postcode": "IM2 4HW",
        "addr:street": "Hutchinson Square",
        "internet_access": "wlan",
        "internet_access:fee": "no",
        "name": "Arrandale House",
        "tourism": "hotel",
        "website": "https://www.arrandale.com"
      }
    },
    {
      "type": "Feature",
      "id": 502533095,
      "geometry": {
        "type": "Point",
        "coordinates": [
          -4.628883,
          54.19372
        ]
      },
      "properties": {
        "fixme": "approximate location",
        "name": "Kenaa Holiday Accommodation",
        "tourism": "chalet",
        "website": "https://www.kennaa.com/holidayaccommodation.htm"
      }
    },
    {
      "type": "Feature",
      "id": 549539741,
      "geometry": {
        "type": "Point",
        "coordinates": [
          -4.740428,
          54.163292
        ]
      },
      "properties": {
        "tourism": "viewpoint"
      }
    },
    {
      "type": "Feature",
      "id": 551862841,
      "geometry": {
        "type": "Point",
        "coordinates": [
          -4.4694,
          54.143453
        ]
      },
      "properties": {
        "name": "Douglas Head",
        "tourism": "viewpoint"
      }
    },
    {
      "type": "Feature",
      "id": 727475963,
      "geometry": {
        "type": "Point",
        "coordinates": [
          -4.482691,
          54.147836
        ]
      },
      "properties": {
        "addr:city": "Douglas",
        "addr:country": "IM",
        "addr:housenumber": "15",
        "addr:postcode": "IM1 4LE",
        "addr:street": "North Quay",
        "email": "reservations@saillofts.im",
        "name": "Sail Lofts",
        "phone": "+44 1624 625005",
        "rooms": "4",
        "source": "photo",
        "tourism": "guest_house",
        "website": "https://www.saillofts.im"
      }
    },
    {
      "type": "Feature",
      "id": 727802289,
      "geometry": {
        "type": "Point",
        "coordinates": [
          -4.737015,
          54.068219
        ]
      },
      "properties": {
        "tourism": "picnic_site"
      }
    },
    {
      "type": "Feature",
      "id": 734998862,
      "geometry": {
        "type": "Point",
        "coordinates": [
          -4.47379,
          54.148556
        ]
      },
      "properties": {
        "information": "office",
        "name": "Isle of Man Welcome Centre",
        "source": "survey",
        "tourism": "information"
      }
    },
    {
      "type": "Feature",
      "id": 735916611,
      "geometry": {
        "type": "Point",
        "coordinates": [
          -4.468501,
          54.143246
        ]
      },
      "properties": {
        "artist_name": "Amanda Barton",
        "artwork_type": "statue",
        "material": "bronze",
        "name": "Sir William Hillary",
        "start_date": "1999-09-21",
        "subject:wikidata": "Q8012342",
        "subject:wikipedia": "en:William Hillary",
        "tourism": "artwork",
        "wikimedia_commons": "Category:Statue of William Hillary, Douglas Head"
      }
    },
    {
      "type": "Feature",
      "id": 756012451,
      "geometry": {
        "type": "Point",
        "coordinates": [
          -4.642757,
          54.157036
        ]
      },
      "properties": {
        "source": "Isle of Man Government 1:25000 map (2007)",
        "tourism": "picnic_site"
      }
    },
    {
      "type": "Feature",
      "id": 780295091,
      "geometry": {
        "type": "Point",
        "coordinates": [
          -4.646813,
          54.095064
        ]
      },
      "properties": {
        "name": "Cross Four Ways",
        "place": "hamlet",
        "tourism": "attraction"
      }
    },
    {
      "type": "Feature",
      "id": 801113963,
      "geometry": {
        "type": "Point",
        "coordinates": [
          -4.581696,
          54.190237
        ]
      },
      "properties": {
        "name": "The Highlander",
        "tourism": "attraction"
      }
    },
    {
      "type": "Feature",
      "id": 801114012,
      "geometry": {
        "type": "Point",
        "coordinates": [
          -4.588866,
          54.192709
        ]
      },
      "properties": {
        "name": "Greeba Castle",
        "tourism": "attraction"
      }
    },
    {
      "type": "Feature",
      "id": 939199116,
      "geometry": {
        "type": "Point",
        "coordinates": [
          -4.468655,
          54.164109
        ]
      },
      "properties": {
        "fixme": "check if still exists",
        "name": "Silvercraigs",
        "phone": "01624 677776",
        "tourism": "hotel"
      }
    },
    {
      "type": "Feature",
      "id": 939199118,
      "geometry": {
        "type": "Point",
        "coordinates": [
          -4.468746,
          54.164052
        ]
      },
      "properties": {
        "addr:city": "Douglas",
        "addr:country": "IM",
        "addr:housenumber": "26",
        "addr:postcode": "IM2 4NF",
        "addr:street": "Queens Promenade",
        "addr:substreet": "Palace Terrace",
        "children": "no",
        "fixme": "check if still exists",
        "name": "Inglewood",
        "operator": "Cross Hotels Ltd",
        "phone": "01624 674734",
        "smoking": "no",
        "tourism": "guest_house"
      }
    },
    {
      "type": "Feature",
      "id": 1069323482,
      "geometry": {
        "type": "Point",
        "coordinates": [
          -4.481327,
          54.160192
        ]
      },
      "properties": {
        "addr:country": "IM",
        "addr:housenumber": "15",
        "addr:street": "Ballaquayle Road",
        "addr:substreet": "Stanley View",
        "name": "Adelphi Hotel",
        "phone": "+44 1624 676591",
        "tourism": "hotel"
      }
    },
    {
      "type": "Feature",
      "id": 1151886562,
      "geometry": {
        "type": "Point",
        "coordinates": [
          -4.513742,
          54.315591
        ]
      },
      "properties": {
        "name": "Quarry Bends",
        "tourism": "attraction",
        "wikidata": "Q7269208",
        "wikipedia": "en:Quarry Bends"
      }
    },
    {
      "type": "Feature",
      "id": 1219367462,
      "geometry": {
        "type": "Point",
        "coordinates": [
          -4.64357,
          54.111063
        ]
      },
      "properties": {
        "access": "private",
        "name": "Mullin-y-Carty",
        "name:gv": "Mullin-y-Carty",
        "scout": "yes",
        "tourism": "camp_site"
      }
    },
    {
      "type": "Feature",
      "id": 1286674600,
      "geometry": {
        "type": "Point",
        "coordinates": [
          -4.636654,
          54.205921
        ]
      },
      "properties": {
        "amenity": "shelter",
        "tourism": "viewpoint"
      }
    },
    {
      "type": "Feature",
      "id": 1286674699,
      "geometry": {
        "type": "Point",
        "coordinates": [
          -4.64398,
          54.203508
        ]
      },
      "properties": {
        "direction": "270",
        "tourism": "viewpoint"
      }
    },
    {
      "type": "Feature",
      "id": 1304030839,
      "geometry": {
        "type": "Point",
        "coordinates": [
          -4.577906,
          54.292733
        ]
      },
      "properties": {
        "name": "Birkin's Bend",
        "tourism": "attraction",
        "wikidata": "Q4916488",
        "wikipedia": "en:Birkin's Bend"
      }
    },
    {
      "type": "Feature",
      "id": 1697702230,
      "geometry": {
        "type": "Point",
        "coordinates": [
          -4.47367,
          54.237038
        ]
      },
      "properties": {
        "alt_name": "Dukes",
        "highway": "milestone",
        "name": "32nd Milestone",
        "tourism": "attraction"
      }
    },
    {
      "type": "Feature",
      "id": 1697727831,
      "geometry": {
        "type": "Point",
        "coordinates": [
          -4.376976,
          54.313212
        ]
      },
      "properties": {
        "name": "Waterworks",
        "tourism": "attraction",
        "wikidata": "Q7973426",
        "wikipedia": "en:Waterworks, Isle of Man"
      }
    },
    {
      "type": "Feature",
      "id": 1697727855,
      "geometry": {
        "type": "Point",
        "coordinates": [
          -4.393582,
          54.301146
        ]
      },
      "properties": {
        "alt_name": "Joey's",
        "highway": "milestone",
        "name": "26th Milestone",
        "tourism": "attraction",
        "wikidata": "Q4632463",
        "wikipedia": "en:26th Milestone, Isle of Man"
      }
    },
    {
      "type": "Feature",
      "id": 1697728716,
      "geometry": {
        "type": "Point",
        "coordinates": [
          -4.382963,
          54.314761
        ]
      },
      "properties": {
        "name": "Stella Maris",
        "tourism": "attraction"
      }
    },
    {
      "type": "Feature",
      "id": 1732876575,
      "geometry": {
        "type": "Point",
        "coordinates": [
          -4.393594,
          54.320618
        ]
      },
      "properties": {
        "name": "School House Corner",
        "tourism": "attraction",
        "wikidata": "Q7432270",
        "wikipedia": "en:School House Corner"
      }
    },
    {
      "type": "Feature",
      "id": 1732884687,
      "geometry": {
        "type": "Point",
        "coordinates": [
          -4.432749,
          54.318072
        ]
      },
      "properties": {
        "name": "Glentramman",
        "tourism": "attraction"
      }
    },
    {
      "type": "Feature",
      "id": 1745777545,
      "geometry": {
        "type": "Point",
        "coordinates": [
          -4.606308,
          54.241574
        ]
      },
      "properties": {
        "name": "Molyneux's",
        "tourism": "attraction"
      }
    },
    {
      "type": "Feature",
      "id": 1745777551,
      "geometry": {
        "type": "Point",
        "coordinates": [
          -4.589163,
          54.250412
        ]
      },
      "properties": {
        "name": "Handley's Corner",
        "old_name": "Ballamenagh Corner",
        "tourism": "attraction",
        "wikidata": "Q5647476",
        "wikipedia": "en:Handley's Corner, Isle of Man"
      }
    },
    {
      "type": "Feature",
      "id": 1745777565,
      "geometry": {
        "type": "Point",
        "coordinates": [
          -4.585168,
          54.25438
        ]
      },
      "properties": {
        "name": "McGuinness's",
        "tourism": "attraction"
      }
    },
    {
      "type": "Feature",
      "id": 1747483581,
      "geometry": {
        "type": "Point",
        "coordinates": [
          -4.382576,
          54.319439
        ]
      },
      "properties": {
        "name": "Cruickshank's Corner",
        "tourism": "attraction"
      }
    },
    {
      "type": "Feature",
      "id": 1751388298,
      "geometry": {
        "type": "Point",
        "coordinates": [
          -4.755243,
          54.080201
        ]
      },
      "properties": {
        "information": "route_marker",
        "note": "Footpath signed up this road, but it doesn't connect to other paths at the top of the road. Good view from turning point.",
        "tourism": "information"
      }
    },
    {
      "type": "Feature",
      "id": 1751528049,
      "geometry": {
        "type": "Point",
        "coordinates": [
          -4.536224,
          54.171538
        ]
      },
      "properties": {
        "name": "Ballahutchin Hill",
        "tourism": "attraction"
      }
    },
    {
      "type": "Feature",
      "id": 1783400412,
      "geometry": {
        "type": "Point",
        "coordinates": [
          -4.465036,
          54.248009
        ]
      },
      "properties": {
        "name": "Hailwood's Rise",
        "tourism": "attraction"
      }
    },
    {
      "type": "Feature",
      "id": 1925453835,
      "geometry": {
        "type": "Point",
        "coordinates": [
          -4.793537,
          54.063924
        ]
      },
      "properties": {
        "name": "Calf Sound",
        "tourism": "viewpoint"
      }
    },
    {
      "type": "Feature",
      "id": 1950174701,
      "geometry": {
        "type": "Point",
        "coordinates": [
          -4.586479,
          54.117896
        ]
      },
      "properties": {
        "addr:city": "Santon",
        "addr:country": "IM",
        "addr:housename": "Santon Villa",
        "addr:postcode": "IM4 1EN",
        "addr:street": "New Castletown Road",
        "contact:facebook": "https://www.facebook.com/murraysmotorcyclemuseum/",
        "fee": "yes",
        "museum": "motorcycle",
        "name": "Murray's Motorcycle Museum",
        "name:en": "Murray's Motorcycle Museum",
        "tourism": "museum",
        "website": "https://www.murraysmotorcyclemuseum.com",
        "wikidata": "Q113363908"
      }
    },
    {
      "type": "Feature",
      "id": 2388000716,
      "geometry": {
        "type": "Point",
        "coordinates": [
          -4.566128,
          54.183971
        ]
      },
      "properties": {
        "board_type": "notice",
        "information": "board",
        "name": "Marown Parish Comissioners",
        "source": "survey",
        "tourism": "information"
      }
    },
    {
      "type": "Feature",
      "id": 2394523265,
      "geometry": {
        "type": "Point",
        "coordinates": [
          -4.520479,
          54.127226
        ]
      },
      "properties": {
        "tourism": "picnic_site"
      }
    },
    {
      "type": "Feature",
      "id": 2394903220,
      "geometry": {
        "type": "Point",
        "coordinates": [
          -4.503909,
          54.127262
        ]
      },
      "properties": {
        "description": "Dark Sky Discovery Site",
        "tourism": "viewpoint"
      }
    },
    {
      "type": "Feature",
      "id": 2394903241,
      "geometry": {
        "type": "Point",
        "coordinates": [
          -4.503416,
          54.127576
        ]
      },
      "properties": {
        "tourism": "picnic_site"
      }
    },
    {
      "type": "Feature",
      "id": 2653154859,
      "geometry": {
        "type": "Point",
        "coordinates": [
          -4.653804,
          54.073451
        ]
      },
      "properties": {
        "information": "board",
        "source": "survey",
        "tourism": "information"
      }
    },
    {
      "type": "Feature",
      "id": 3427837027,
      "geometry": {
        "type": "Point",
        "coordinates": [
          -4.405198,
          54.233833
        ]
      },
      "properties": {
        "name": "The Great Laxey Mine Railway",
        "tourism": "attraction",
        "wikidata": "Q2962387"
      }
    },
    {
      "type": "Feature",
      "id": 3666167636,
      "geometry": {
        "type": "Point",
        "coordinates": [
          -4.479874,
          54.160653
        ]
      },
      "properties": {
        "addr:housenumber": "28",
        "addr:street": "Hutchinson Square",
        "name": "The Ashton",
        "source": "local knowledge",
        "stars": "3",
        "tourism": "hotel"
      }
    },
    {
      "type": "Feature",
      "id": 4115148160,
      "geometry": {
        "type": "Point",
        "coordinates": [
          -4.581489,
          54.120315
        ]
      },
      "properties": {
        "addr:city": "Santon",
        "addr:country": "IM",
        "addr:postcode": "IM4 1EJ",
        "addr:street": "Santon Main Road",
        "name": "Santon Country Retreat",
        "old_name": "Santon Motel",
        "tourism": "hotel",
        "website": "https://www.visitisleofman.com/stay/santon-country-retreat-p1287691"
      }
    },
    {
      "type": "Feature",
      "id": 4127664537,
      "geometry": {
        "type": "Point",
        "coordinates": [
          -4.461682,
          54.263216
        ]
      },
      "properties": {
        "information": "map",
        "map_type": "toposcope",
        "tourism": "information"
      }
    },
    {
      "type": "Feature",
      "id": 4144257679,
      "geometry": {
        "type": "Point",
        "coordinates": [
          -4.485372,
          54.148075
        ]
      },
      "properties": {
        "information": "map",
        "map_type": "street",
        "name": "Douglas",
        "tourism": "information"
      }
    },
    {
      "type": "Feature",
      "id": 4633634221,
      "geometry": {
        "type": "Point",
        "coordinates": [
          -4.653063,
          54.073344
        ]
      },
      "properties": {
        "information": "map;board",
        "source": "survey",
        "tourism": "information"
      }
    },
    {
      "type": "Feature",
      "id": 4861893526,
      "geometry": {
        "type": "Point",
        "coordinates": [
          -4.698562,
          54.225066
        ]
      },
      "properties": {
        "name": "Lady Fenella",
        "tourism": "artwork"
      }
    },
    {
      "type": "Feature",
      "id": 4899420258,
      "geometry": {
        "type": "Point",
        "coordinates": [
          -4.560728,
          54.173547
        ]
      },
      "properties": {
        "man_made": "watermill",
        "name": "Glen Darragh Water Wheel",
        "tourism": "attraction"
      }
    },
    {
      "type": "Feature",
      "id": 5063392621,
      "geometry": {
        "type": "Point",
        "coordinates": [
          -4.668008,
          54.135269
        ]
      },
      "properties": {
        "name": "Kerroobeg",
        "name:en": "Kerroobeg",
        "tourism": "viewpoint"
      }
    },
    {
      "type": "Feature",
      "id": 5117277517,
      "geometry": {
        "type": "Point",
        "coordinates": [
          -4.470726,
          54.202224
        ]
      },
      "properties": {
        "name": "Gob-ny-Geay",
        "tourism": "attraction",
        "wikidata": "Q5575386",
        "wikipedia": "en:Gob-ny-Geay"
      }
    },
    {
      "type": "Feature",
      "id": 5211483492,
      "geometry": {
        "type": "Point",
        "coordinates": [
          -4.652216,
          54.072555
        ]
      },
      "properties": {
        "source": "survey",
        "tourism": "viewpoint"
      }
    },
    {
      "type": "Feature",
      "id": 6174710385,
      "geometry": {
        "type": "Point",
        "coordinates": [
          -4.549967,
          54.355675
        ]
      },
      "properties": {
        "historic": "wreck",
        "name": "Pasages Shipwreck",
        "seamark:type": "wreck",
        "tourism": "attraction",
        "wikidata": "Q30598409",
        "wikipedia": "en:Pasages (steam trawler)",
        "wreck:date_sunk": "1931",
        "wreck:visible_at_high_tide": "no",
        "wreck:visible_at_low_tide": "yes"
      }
    },
    {
      "type": "Feature",
      "id": 6503531569,
      "geometry": {
        "type": "Point",
        "coordinates": [
          -4.509236,
          54.17966
        ]
      },
      "properties": {
        "contact:facebook": "https://www.facebook.com/UnionMillsFCTTCampsite/",
        "name": "FC Camping Union Mills",
        "seasonal": "yes",
        "tourism": "camp_site",
        "website": "https://tt.umfc.tv/"
      }
    },
    {
      "type": "Feature",
      "id": 6609143864,
      "geometry": {
        "type": "Point",
        "coordinates": [
          -4.71453,
          54.208326
        ]
      },
      "properties": {
        "tourism": "picnic_site"
      }
    },
    {
      "type": "Feature",
      "id": 6739810081,
      "geometry": {
        "type": "Point",
        "coordinates": [
          -4.46262,
          54.262094
        ]
      },
      "properties": {
        "direction": "67-247",
        "tourism": "viewpoint"
      }
    },
    {
      "type": "Feature",
      "id": 6918863985,
      "geometry": {
        "type": "Point",
        "coordinates": [
          -4.587425,
          54.28691
        ]
      },
      "properties": {
        "addr:city": "Kirk Michael",
        "addr:housename": "Michael United AFC",
        "addr:postcode": "IM6 1EE",
        "addr:street": "Balleira Road",
        "name": "Michael United AFC Campsite",
        "seasonal": "yes",
        "tourism": "camp_site",
        "website": "https://www.visitisleofman.com/trade/information/product-catch-all/michael-utd-afc-campsite-p1287451"
      }
    },
    {
      "type": "Feature",
      "id": 7151277585,
      "geometry": {
        "type": "Point",
        "coordinates": [
          -4.377193,
          54.318194
        ]
      },
      "properties": {
        "addr:city": "Ramsey",
        "addr:housename": "Carlton Grove",
        "addr:housenumber": "9",
        "addr:postcode": "IM8 2JA",
        "addr:street": "Queen's Drive",
        "addr:substreet": "Queen's Drive West",
        "email": "holidayhomes@manx.net",
        "internet_access": "wlan",
        "name": "Nine Carlton Grove",
        "operator": "Isle of Man Holiday Homes",
        "rooms": "2",
        "tourism": "apartment",
        "website": "https://www.visitisleofman.com/stay/nine-carlton-grove-p1360601"
      }
    },
    {
      "type": "Feature",
      "id": 7777593447,
      "geometry": {
        "type": "Point",
        "coordinates": [
          -4.76854,
          54.068511
        ]
      },
      "properties": {
        "information": "board",
        "name": "Church Farm Walk",
        "operator": "Manx National Heritage",
        "tourism": "information"
      }
    },
    {
      "type": "Feature",
      "id": 7843012495,
      "geometry": {
        "type": "Point",
        "coordinates": [
          -4.823501,
          54.053261
        ]
      },
      "properties": {
        "information": "guidepost",
        "tourism": "information"
      }
    },
    {
      "type": "Feature",
      "id": 7843012498,
      "geometry": {
        "type": "Point",
        "coordinates": [
          -4.828492,
          54.052756
        ]
      },
      "properties": {
        "information": "board",
        "tourism": "information"
      }
    },
    {
      "type": "Feature",
      "id": 7887954946,
      "geometry": {
        "type": "Point",
        "coordinates": [
          -4.573252,
          54.186817
        ]
      },
      "properties": {
        "name": "Crosby Jump",
        "tourism": "attraction"
      }
    },
    {
      "type": "Feature",
      "id": 8280984447,
      "geometry": {
        "type": "Point",
        "coordinates": [
          -4.6343,
          54.208165
        ]
      },
      "properties": {
        "artwork_type": "installation",
        "tourism": "artwork"
      }
    },
    {
      "type": "Feature",
      "id": 8355908520,
      "geometry": {
        "type": "Point",
        "coordinates": [
          -4.759376,
          54.085469
        ]
      },
      "properties": {
        "board_type": "nature",
        "description": "Points of interest in the view",
        "information": "board",
        "tourism": "information"
      }
    },
    {
      "type": "Feature",
      "id": 8355908547,
      "geometry": {
        "type": "Point",
        "coordinates": [
          -4.759289,
          54.085858
        ]
      },
      "properties": {
        "artwork_type": "installation",
        "name": "Boat",
        "tourism": "artwork"
      }
    },
    {
      "type": "Feature",
      "id": 8378219631,
      "geometry": {
        "type": "Point",
        "coordinates": [
          -4.620199,
          54.228072
        ]
      },
      "properties": {
        "name": "Sarah's Cottage",
        "place": "locality",
        "tourism": "attraction",
        "wikidata": "Q7421997",
        "wikipedia": "en:Sarah's Cottage, Isle of Man"
      }
    },
    {
      "type": "Feature",
      "id": 8378507536,
      "geometry": {
        "type": "Point",
        "coordinates": [
          -4.597069,
          54.229613
        ]
      },
      "properties": {
        "name": "Rhenass Waterfall",
        "tourism": "attraction"
      }
    },
    {
      "type": "Feature",
      "id": 8555436710,
      "geometry": {
        "type": "Point",
        "coordinates": [
          -4.449376,
          54.262939
        ]
      },
      "properties": {
        "name": "The Verandah",
        "place": "locality",
        "tourism": "attraction",
        "wikidata": "Q7920880",
        "wikipedia": "en:Verandah, Isle of Man"
      }
    },
    {
      "type": "Feature",
      "id": 8555436824,
      "geometry": {
        "type": "Point",
        "coordinates": [
          -4.381823,
          54.305433
        ]
      },
      "properties": {
        "name": "Gooseneck",
        "place": "locality",
        "tourism": "attraction"
      }
    },
    {
      "type": "Feature",
      "id": 8555436839,
      "geometry": {
        "type": "Point",
        "coordinates": [
          -4.384994,
          54.312892
        ]
      },
      "properties": {
        "name": "Ramsey Hairpin",
        "place": "locality",
        "tourism": "attraction",
        "wikidata": "Q7290218",
        "wikipedia": "en:Ramsey Hairpin"
      }
    },
    {
      "type": "Feature",
      "id": 8560685225,
      "geometry": {
        "type": "Point",
        "coordinates": [
          -4.406295,
          54.233727
        ]
      },
      "properties": {
        "information": "map",
        "map_type": "information",
        "tourism": "information"
      }
    },
    {
      "type": "Feature",
      "id": 8603450963,
      "geometry": {
        "type": "Point",
        "coordinates": [
          -4.649636,
          54.091326
        ]
      },
      "properties": {
        "name": "\"Vampire's Grave\"",
        "tourism": "attraction"
      }
    },
    {
      "type": "Feature",
      "id": 8914832018,
      "geometry": {
        "type": "Point",
        "coordinates": [
          -4.652648,
          54.075085
        ]
      },
      "properties": {
        "description": "Millennium Way",
        "information": "guidepost",
        "marker": "post",
        "material": "wood",
        "source": "survey",
        "tourism": "information"
      }
    },
    {
      "type": "Feature",
      "id": 8980672916,
      "geometry": {
        "type": "Point",
        "coordinates": [
          -4.565699,
          54.157587
        ]
      },
      "properties": {
        "board_type": "history",
        "information": "board",
        "tourism": "information"
      }
    },
    {
      "type": "Feature",
      "id": 8980761217,
      "geometry": {
        "type": "Point",
        "coordinates": [
          -4.566615,
          54.157247
        ]
      },
      "properties": {
        "board_type": "history",
        "information": "board",
        "tourism": "information"
      }
    },
    {
      "type": "Feature",
      "id": 8988077264,
      "geometry": {
        "type": "Point",
        "coordinates": [
          -4.577016,
          54.135553
        ]
      },
      "properties": {
        "board_type": "history",
        "information": "board",
        "tourism": "information"
      }
    },
    {
      "type": "Feature",
      "id": 9023586433,
      "geometry": {
        "type": "Point",
        "coordinates": [
          -4.479372,
          54.152912
        ]
      },
      "properties": {
        "addr:city": "Douglas",
        "addr:country": "IM",
        "addr:housename": "Loft 11",
        "addr:housenumber": "11",
        "addr:postcode": "IM1 2EX",
        "addr:street": "Castle Street",
        "contact:email": "enquiries@loft11.im",
        "name": "Loft 11",
        "tourism": "apartment"
      }
    },
    {
      "type": "Feature",
      "id": 9217019709,
      "geometry": {
        "type": "Point",
        "coordinates": [
          -4.409122,
          54.327493
        ]
      },
      "properties": {
        "tourism": "picnic_site"
      }
    },
    {
      "type": "Feature",
      "id": 9257779946,
      "geometry": {
        "type": "Point",
        "coordinates": [
          -4.342485,
          54.306765
        ]
      },
      "properties": {
        "direction": "280-60",
        "tourism": "viewpoint"
      }
    },
    {
      "type": "Feature",
      "id": 9257779947,
      "geometry": {
        "type": "Point",
        "coordinates": [
          -4.322929,
          54.302324
        ]
      },
      "properties": {
        "direction": "10",
        "tourism": "viewpoint"
      }
    },
    {
      "type": "Feature",
      "id": 9257779968,
      "geometry": {
        "type": "Point",
        "coordinates": [
          -4.312526,
          54.298162
        ]
      },
      "properties": {
        "description": "Maughold Head",
        "direction": "50",
        "tourism": "viewpoint"
      }
    },
    {
      "type": "Feature",
      "id": 9257779970,
      "geometry": {
        "type": "Point",
        "coordinates": [
          -4.310639,
          54.296203
        ]
      },
      "properties": {
        "direction": "45",
        "tourism": "viewpoint"
      }
    },
    {
      "type": "Feature",
      "id": 9257780005,
      "geometry": {
        "type": "Point",
        "coordinates": [
          -4.351115,
          54.311302
        ]
      },
      "properties": {
        "description": "Civil War Battery",
        "tourism": "viewpoint"
      }
    },
    {
      "type": "Feature",
      "id": 9289101494,
      "geometry": {
        "type": "Point",
        "coordinates": [
          -4.412482,
          54.406119
        ]
      },
      "properties": {
        "tourism": "viewpoint"
      }
    },
    {
      "type": "Feature",
      "id": 9332491586,
      "geometry": {
        "type": "Point",
        "coordinates": [
          -4.531051,
          54.168116
        ]
      },
      "properties": {
        "addr:city": "Union Mills",
        "addr:plot": "Close Ny Howin",
        "addr:postcode": "IM4 4AN",
        "addr:street": "Union Mills Main Road",
        "name": "Saba's Glen Yurt",
        "tourism": "chalet",
        "website": "https://www.sabasglenyurt.com/"
      }
    },
    {
      "type": "Feature",
      "id": 9358245964,
      "geometry": {
        "type": "Point",
        "coordinates": [
          -4.311602,
          54.298235
        ]
      },
      "properties": {
        "tourism": "viewpoint"
      }
    },
    {
      "type": "Feature",
      "id": 9364283779,
      "geometry": {
        "type": "Point",
        "coordinates": [
          -4.408517,
          54.241354
        ]
      },
      "properties": {
        "direction": "175",
        "tourism": "viewpoint"
      }
    },
    {
      "type": "Feature",
      "id": 9364283796,
      "geometry": {
        "type": "Point",
        "coordinates": [
          -4.399597,
          54.244941
        ]
      },
      "properties": {
        "direction": "160",
        "tourism": "viewpoint"
      }
    },
    {
      "type": "Feature",
      "id": 9473024606,
      "geometry": {
        "type": "Point",
        "coordinates": [
          -4.381068,
          54.321493
        ]
      },
      "properties": {
        "artist_name": "Amanda Barton",
        "artwork_type": "sculpture",
        "description": "Commissioned as a millenium project and moved here from town hall in 2013.",
        "image": "https://www.geograph.org.uk/photo/3641114",
        "material": "bronze",
        "name": "Two Kings of Mann",
        "start_date": "2000",
        "tourism": "artwork",
        "wikimedia_commons": "File:Ancient Chess Match - geograph.org.uk - 3641114.jpg"
      }
    },
    {
      "type": "Feature",
      "id": 9851665917,
      "geometry": {
        "type": "Point",
        "coordinates": [
          -4.822092,
          54.05386
        ]
      },
      "properties": {
        "fixme": "tourist attraction / cliff / peak? combine with one of nearby elevations and/or other Or Vooar to NW?",
        "name": "Or Vooar",
        "name:gv": "Or Vooar",
        "note": "\u2018Great edge.\u2019 The name of a cliff on the Calf.",
        "tourism": "attraction"
      }
    },
    {
      "type": "Feature",
      "id": 9851666517,
      "geometry": {
        "type": "Point",
        "coordinates": [
          -4.824416,
          54.056006
        ]
      },
      "properties": {
        "name": "Or Vooar",
        "name:gv": "Or Vooar",
        "tourism": "attraction"
      }
    },
    {
      "type": "Feature",
      "id": 9918871435,
      "geometry": {
        "type": "Point",
        "coordinates": [
          -4.596878,
          54.245251
        ]
      },
      "properties": {
        "alt_name": "Drinkwater's Bend",
        "description": "11th mile on TT course; 13th mile from Ramsey",
        "fixme": "Tag milestone both directions",
        "highway": "milestone",
        "name": "11th Milestone",
        "tourism": "attraction",
        "wikidata": "Q4547915",
        "wikipedia": "en:11th Milestone, Isle of Man"
      }
    },
    {
      "type": "Feature",
      "id": 9970463030,
      "geometry": {
        "type": "Point",
        "coordinates": [
          -4.455227,
          54.16698
        ]
      },
      "properties": {
        "artwork_type": "statue",
        "historic": "memorial",
        "name": "Steve Hislop Memorial",
        "subject:wikidata": "Q1529857",
        "subject:wikipedia": "en:Steve Hislop",
        "tourism": "artwork"
      }
    },
    {
      "type": "Feature",
      "id": 10049617258,
      "geometry": {
        "type": "Point",
        "coordinates": [
          -4.478305,
          54.151818
        ]
      },
      "properties": {
        "currency:XBT": "yes",
        "name": "Ellan Vannin",
        "payment:lightning": "yes",
        "payment:lightning_contactless": "yes",
        "payment:onchain": "yes",
        "phone": "+441624674824",
        "survey:date": "2022-09-24",
        "tourism": "hotel",
        "website": "https://www.ellanvanninhotel.im/"
      }
    },
    {
      "type": "Feature",
      "id": 10135859524,
      "geometry": {
        "type": "Point",
        "coordinates": [
          -4.642064,
          54.250257
        ]
      },
      "properties": {
        "fixme": "check location",
        "name": "Natural Arch",
        "source": "Isle of Man Government 1:25000 map",
        "tourism": "attraction"
      }
    },
    {
      "type": "Feature",
      "id": 10135859526,
      "geometry": {
        "type": "Point",
        "coordinates": [
          -4.648477,
          54.246621
        ]
      },
      "properties": {
        "fixme": "check location",
        "name": "Cave",
        "source": "Isle of Man Government 1:25000 map",
        "tourism": "attraction"
      }
    },
    {
      "type": "Feature",
      "id": 10135859527,
      "geometry": {
        "type": "Point",
        "coordinates": [
          -4.649991,
          54.245481
        ]
      },
      "properties": {
        "fixme": "check location",
        "name": "Cave",
        "source": "Isle of Man Government 1:25000 map",
        "tourism": "attraction"
      }
    },
    {
      "type": "Feature",
      "id": 10169482882,
      "geometry": {
        "type": "Point",
        "coordinates": [
          -4.52231,
          54.137479
        ]
      },
      "properties": {
        "name": "Real Fairy Bridge",
        "tourism": "attraction"
      }
    },
    {
      "type": "Feature",
      "id": 10169482883,
      "geometry": {
        "type": "Point",
        "coordinates": [
          -4.595244,
          54.114646
        ]
      },
      "properties": {
        "name": "Fairy Bridge",
        "tourism": "attraction",
        "wikidata": "Q3432580",
        "wikipedia": "en:Fairy Bridge (Isle of Man)"
      }
    },
    {
      "type": "Feature",
      "id": 10297403400,
      "geometry": {
        "type": "Point",
        "coordinates": [
          -4.376883,
          54.271522
        ]
      },
      "properties": {
        "information": "board",
        "name": "Garff Commissioners",
        "source": "streetside",
        "tourism": "information"
      }
    },
    {
      "type": "Feature",
      "id": 10297500992,
      "geometry": {
        "type": "Point",
        "coordinates": [
          -4.404546,
          54.23022
        ]
      },
      "properties": {
        "information": "board",
        "tourism": "information"
      }
    },
    {
      "type": "Feature",
      "id": 10607167375,
      "geometry": {
        "type": "Point",
        "coordinates": [
          -4.381312,
          54.320701
        ]
      },
      "properties": {
        "information": "guidepost",
        "tourism": "information"
      }
    },
    {
      "type": "Feature",
      "id": 10607193605,
      "geometry": {
        "type": "Point",
        "coordinates": [
          -4.384754,
          54.320887
        ]
      },
      "properties": {
        "information": "guidepost",
        "tourism": "information"
      }
    },
    {
      "type": "Feature",
      "id": 10607193606,
      "geometry": {
        "type": "Point",
        "coordinates": [
          -4.384728,
          54.320899
        ]
      },
      "properties": {
        "information": "board",
        "name": "Ramsey Town Commissioners",
        "tourism": "information"
      }
    },
    {
      "type": "Feature",
      "id": 10634772695,
      "geometry": {
        "type": "Point",
        "coordinates": [
          -4.48428,
          54.153458
        ]
      },
      "properties": {
        "addr:city": "Douglas",
        "addr:housenumber": "102",
        "addr:postcode": "IM1 3AQ",
        "addr:street": "Bucks Road",
        "name": "Lansdowne",
        "source": "mapillary",
        "tourism": "guest_house"
      }
    },
    {
      "type": "Feature",
      "id": 10648497429,
      "geometry": {
        "type": "Point",
        "coordinates": [
          -4.387817,
          54.323102
        ]
      },
      "properties": {
        "information": "board",
        "tourism": "information"
      }
    },
    {
      "type": "Feature",
      "id": 10651817852,
      "geometry": {
        "type": "Point",
        "coordinates": [
          -4.387561,
          54.322589
        ]
      },
      "properties": {
        "information": "guidepost",
        "tourism": "information"
      }
    },
    {
      "type": "Feature",
      "id": 10669350341,
      "geometry": {
        "type": "Point",
        "coordinates": [
          -4.379429,
          54.321386
        ]
      },
      "properties": {
        "description": "Celebrating the incorporation of Ramsey as a town in 1865. It is decked in the traditional blue and gold colours of Ramsey Town Commissioners. The lamppost incorporates a water fountain at its base, but this is no longer in use.",
        "disused:amenity": "drinking_water",
        "highway": "street_lamp",
        "historic": "street_lamp",
        "name": "Heritage lamp post",
        "support": "pole",
        "tourism": "attraction"
      }
    },
    {
      "type": "Feature",
      "id": 10674834325,
      "geometry": {
        "type": "Point",
        "coordinates": [
          -4.766043,
          54.070682
        ]
      },
      "properties": {
        "board_type": "welcome_sign",
        "information": "board",
        "tourism": "information"
      }
    },
    {
      "type": "Feature",
      "id": 10681892882,
      "geometry": {
        "type": "Point",
        "coordinates": [
          -4.378025,
          54.321824
        ]
      },
      "properties": {
        "information": "map",
        "map_type": "information",
        "source": "mapillary",
        "tourism": "information"
      }
    },
    {
      "type": "Feature",
      "id": 10683492835,
      "geometry": {
        "type": "Point",
        "coordinates": [
          -4.493023,
          54.348383
        ]
      },
      "properties": {
        "addr:city": "Sandygate",
        "addr:country": "IM",
        "addr:postcode": "IM7 3BS",
        "addr:street": "Sandygate Road",
        "contact:facebook": "https://www.facebook.com/BallacryeBeg/",
        "name": "Ballacrye Beg",
        "note": "cottage attached to farmhouse",
        "tourism": "chalet",
        "website": "https://ballacryebeg.com"
      }
    },
    {
      "type": "Feature",
      "id": 10685384491,
      "geometry": {
        "type": "Point",
        "coordinates": [
          -4.728765,
          54.170651
        ]
      },
      "properties": {
        "addr:city": "Dalby",
        "addr:country": "IM",
        "addr:housename": "Saint James Church",
        "addr:street": "Dalby Road",
        "name": "The Dalby Hub Bunkhouse",
        "tourism": "chalet",
        "website": "http://www.stjamesdalby.org/the-bunkhouse.html"
      }
    },
    {
      "type": "Feature",
      "id": 10686459993,
      "geometry": {
        "type": "Point",
        "coordinates": [
          -4.518429,
          54.169082
        ]
      },
      "properties": {
        "description": "Braddan Parish Commissioners",
        "information": "board",
        "tourism": "information"
      }
    },
    {
      "type": "Feature",
      "id": 10688364361,
      "geometry": {
        "type": "Point",
        "coordinates": [
          -4.413569,
          54.200667
        ]
      },
      "properties": {
        "board_type": "notice",
        "information": "board",
        "tourism": "information"
      }
    },
    {
      "type": "Feature",
      "id": 10688639709,
      "geometry": {
        "type": "Point",
        "coordinates": [
          -4.579422,
          54.291434
        ]
      },
      "properties": {
        "contact:facebook": "https://www.facebook.com/pbcampsiteiom/",
        "name": "Pennybridge TT Campsite",
        "seasonal": "yes",
        "tourism": "camp_site"
      }
    },
    {
      "type": "Feature",
      "id": 10693193695,
      "geometry": {
        "type": "Point",
        "coordinates": [
          -4.638457,
          54.199963
        ]
      },
      "properties": {
        "addr:city": "St John's",
        "addr:housename": "Mullen-e-Cloie",
        "addr:postcode": "IM4 3AR",
        "addr:street": "Foxdale Road",
        "name": "St John's United Football Club Campsite",
        "seasonal": "yes",
        "tourism": "camp_site",
        "website": "https://www.stjohnsfootballclub.com/"
      }
    },
    {
      "type": "Feature",
      "id": 10711123023,
      "geometry": {
        "type": "Point",
        "coordinates": [
          -4.662648,
          54.064106
        ]
      },
      "properties": {
        "board_type": "history",
        "information": "board",
        "name": "Historic Scarlett Landscape",
        "operator": "Culture Vannin",
        "tourism": "information",
        "website": "https://culturevannin.im/exploremore/places/scarlett-landscape-386121/"
      }
    },
    {
      "type": "Feature",
      "id": 10711123024,
      "geometry": {
        "type": "Point",
        "coordinates": [
          -4.662629,
          54.064137
        ]
      },
      "properties": {
        "board_type": "nature",
        "information": "board",
        "name": "Scarlett Visitor Centre and Nature Trail",
        "operator": "Manx Wildlife Trust",
        "tourism": "information"
      }
    },
    {
      "type": "Feature",
      "id": 10717466014,
      "geometry": {
        "type": "Point",
        "coordinates": [
          -4.481996,
          54.154565
        ]
      },
      "properties": {
        "information": "board",
        "tourism": "information"
      }
    },
    {
      "type": "Feature",
      "id": 10717665419,
      "geometry": {
        "type": "Point",
        "coordinates": [
          -4.47988,
          54.213859
        ]
      },
      "properties": {
        "name": "Keppel Gate",
        "place": "locality",
        "tourism": "attraction",
        "wikidata": "Q2364611",
        "wikipedia": "en:Keppel Gate, Isle of Man"
      }
    },
    {
      "type": "Feature",
      "id": 10742329750,
      "geometry": {
        "type": "Point",
        "coordinates": [
          -4.404317,
          54.319909
        ]
      },
      "properties": {
        "addr:city": "Ramsey",
        "addr:country": "IM",
        "addr:postcode": "IM7 2AB",
        "addr:street": "Lezayre Road",
        "name": "Milntown Apartments",
        "operator": "The Milntown Trust",
        "operator:type": "charitable",
        "ref:charity": "754",
        "tourism": "chalet",
        "website": "https://www.milntown.org/apartments-568920/"
      }
    },
    {
      "type": "Feature",
      "id": 10778781241,
      "geometry": {
        "type": "Point",
        "coordinates": [
          -4.652007,
          54.07394
        ]
      },
      "properties": {
        "artist_name": "Bryan Kneale",
        "artwork_type": "bust",
        "material": "bronze",
        "name": "Captain John Quilliam",
        "note": "Refurbished and moved from Castle Rushen grounds in 2020",
        "start_date": "2005",
        "subject:wikidata": "Q3182325",
        "subject:wikipedia": "en:John Quilliam",
        "tourism": "artwork",
        "url": "https://manxnationalheritage.im/news/captain-quilliam-rn-unveiled-in-new-location-on-trafalgar-day/",
        "wikimedia_commons": "File:Captain John Quilliam (1771-1829) - Bust by Bryan Kneale.jpg"
      }
    },
    {
      "type": "Feature",
      "id": 10794945305,
      "geometry": {
        "type": "Point",
        "coordinates": [
          -4.480582,
          54.159221
        ]
      },
      "properties": {
        "name": "All Seasons",
        "tourism": "guest_house"
      }
    },
    {
      "type": "Feature",
      "id": 10813037049,
      "geometry": {
        "type": "Point",
        "coordinates": [
          -4.394601,
          54.29083
        ]
      },
      "properties": {
        "artwork_type": "land_art",
        "description": "Triskelion laid out in loose stones",
        "tourism": "artwork"
      }
    },
    {
      "type": "Feature",
      "id": 10844057179,
      "geometry": {
        "type": "Point",
        "coordinates": [
          -4.478366,
          54.15467
        ]
      },
      "properties": {
        "name": "Cultural area",
        "tourism": "attraction"
      }
    },
    {
      "type": "Feature",
      "id": 10853994042,
      "geometry": {
        "type": "Point",
        "coordinates": [
          -4.653834,
          54.076099
        ]
      },
      "properties": {
        "entrance": "main",
        "name": "The Signet Studio",
        "tourism": "apartment"
      }
    },
    {
      "type": "Feature",
      "id": 10858616256,
      "geometry": {
        "type": "Point",
        "coordinates": [
          -4.626835,
          54.220461
        ]
      },
      "properties": {
        "alt_name": "The Black Dub;Black Dub",
        "amenity": "events_venue",
        "name": "The Blackdub",
        "tourism": "attraction",
        "website": "https://www.theblackdub.com"
      }
    },
    {
      "type": "Feature",
      "id": 10858845295,
      "geometry": {
        "type": "Point",
        "coordinates": [
          -4.63074,
          54.212505
        ]
      },
      "properties": {
        "name": "Doran's Bend",
        "tourism": "attraction",
        "wikidata": "Q5297510",
        "wikipedia": "en:Doran's Bend"
      }
    },
    {
      "type": "Feature",
      "id": 10858941214,
      "geometry": {
        "type": "Point",
        "coordinates": [
          -4.632624,
          54.218228
        ]
      },
      "properties": {
        "name": "Laurel Bank",
        "name:en": "Laurel Bank",
        "name:gv": "Cronk-y-Killey",
        "tourism": "attraction",
        "wikidata": "Q6499754",
        "wikipedia": "en:Laurel Bank"
      }
    },
    {
      "type": "Feature",
      "id": 10858941283,
      "geometry": {
        "type": "Point",
        "coordinates": [
          -4.617503,
          54.231021
        ]
      },
      "properties": {
        "name": "Creg Willey's Hill",
        "place": "locality",
        "tourism": "attraction",
        "wikidata": "Q5183967",
        "wikipedia": "en:Creg Willey's Hill"
      }
    },
    {
      "type": "Feature",
      "id": 10858941284,
      "geometry": {
        "type": "Point",
        "coordinates": [
          -4.613324,
          54.235849
        ]
      },
      "properties": {
        "name": "Lambfell",
        "place": "locality",
        "tourism": "attraction"
      }
    },
    {
      "type": "Feature",
      "id": 10861071081,
      "geometry": {
        "type": "Point",
        "coordinates": [
          -4.588935,
          54.250374
        ]
      },
      "properties": {
        "name": "Ballamenagh Cottage Studio",
        "tourism": "chalet",
        "website": "http://isleofmancottages.co.uk/ballamenagh.html"
      }
    },
    {
      "type": "Feature",
      "id": 10862106479,
      "geometry": {
        "type": "Point",
        "coordinates": [
          -4.463177,
          54.166727
        ]
      },
      "properties": {
        "artist:wikidata": "Q4980208",
        "artist:wikipedia": "en:Bryan Kneale",
        "artist_name": "Bryan Kneale",
        "artwork_type": "statue",
        "material": "bronze",
        "name": "Sir Hall Caine",
        "subject": "Hall Caine",
        "subject:wikidata": "Q2331144",
        "subject:wikipedia": "en:Hall Caine",
        "tourism": "artwork"
      }
    },
    {
      "type": "Feature",
      "id": 10862149551,
      "geometry": {
        "type": "Point",
        "coordinates": [
          -4.634888,
          54.086944
        ]
      },
      "properties": {
        "artist:wikidata": "Q4980208",
        "artist:wikipedia": "en:Bryan Kneale",
        "artist_name": "Bryan Kneale",
        "artwork_type": "sculpture",
        "material": "bronze",
        "name": "The Legs of Man",
        "subject:wikidata": "Q183534",
        "subject:wikipedia": "en:Triskelion",
        "tourism": "artwork",
        "wikimedia_commons": "File:The Three Legs of Man, Ronaldsway Airport - geograph.org.uk - 194213.jpg"
      }
    },
    {
      "type": "Feature",
      "id": 10862209336,
      "geometry": {
        "type": "Point",
        "coordinates": [
          -4.661567,
          54.079502
        ]
      },
      "properties": {
        "name": "Southern 100 start line",
        "tourism": "attraction"
      }
    },
    {
      "type": "Feature",
      "id": 10862294643,
      "geometry": {
        "type": "Point",
        "coordinates": [
          -4.649082,
          54.091273
        ]
      },
      "properties": {
        "name": "Church Bends",
        "tourism": "attraction"
      }
    },
    {
      "type": "Feature",
      "id": 10862294644,
      "geometry": {
        "type": "Point",
        "coordinates": [
          -4.657552,
          54.094347
        ]
      },
      "properties": {
        "name": "Billown Dip",
        "tourism": "attraction"
      }
    },
    {
      "type": "Feature",
      "id": 10862294645,
      "geometry": {
        "type": "Point",
        "coordinates": [
          -4.664709,
          54.094679
        ]
      },
      "properties": {
        "name": "Williams Corner",
        "tourism": "attraction"
      }
    },
    {
      "type": "Feature",
      "id": 10862294646,
      "geometry": {
        "type": "Point",
        "coordinates": [
          -4.66982,
          54.096708
        ]
      },
      "properties": {
        "name": "Ballawhetstone",
        "place": "farm",
        "tourism": "attraction"
      }
    },
    {
      "type": "Feature",
      "id": 10862294647,
      "geometry": {
        "type": "Point",
        "coordinates": [
          -4.674955,
          54.093209
        ]
      },
      "properties": {
        "name": "Ballanorris",
        "place": "locality",
        "tourism": "attraction"
      }
    },
    {
      "type": "Feature",
      "id": 10864523373,
      "geometry": {
        "type": "Point",
        "coordinates": [
          -4.478381,
          54.154749
        ]
      },
      "properties": {
        "artist_name": "John Mulvey",
        "artwork_type": "statue",
        "material": "bronze",
        "name": "The Dancers",
        "tourism": "artwork"
      }
    },
    {
      "type": "Feature",
      "id": 10867731359,
      "geometry": {
        "type": "Point",
        "coordinates": [
          -4.464745,
          54.321085
        ]
      },
      "properties": {
        "name": "Kerrowmoar",
        "place": "locality",
        "tourism": "attraction"
      }
    },
    {
      "type": "Feature",
      "id": 10868094898,
      "geometry": {
        "type": "Point",
        "coordinates": [
          -4.46829,
          54.171815
        ]
      },
      "properties": {
        "name": "Governor's Bridge",
        "place": "locality",
        "tourism": "attraction",
        "wikidata": "Q5589441",
        "wikipedia": "en:Governor's Bridge (Isle of Man)"
      }
    },
    {
      "type": "Feature",
      "id": 10868989796,
      "geometry": {
        "type": "Point",
        "coordinates": [
          -4.630163,
          54.213173
        ]
      },
      "properties": {
        "addr:city": "St Johns",
        "addr:country": "IM",
        "addr:housename": "Glen Helen House",
        "addr:postcode": "IM4 3NH",
        "addr:street": "Glen Helen Road",
        "contact:facebook": "https://www.facebook.com/glenhelenhouseapartment/",
        "name": "Glen Helen House Apartment",
        "tourism": "apartment",
        "website": "https://www.visitisleofman.com/stay/glen-helen-house-apartment-p1319111"
      }
    },
    {
      "type": "Feature",
      "id": 10871602930,
      "geometry": {
        "type": "Point",
        "coordinates": [
          -4.468963,
          54.172027
        ]
      },
      "properties": {
        "name": "Governor's Dip",
        "tourism": "attraction"
      }
    },
    {
      "type": "Feature",
      "id": 10880817236,
      "geometry": {
        "type": "Point",
        "coordinates": [
          -4.768631,
          54.069548
        ]
      },
      "properties": {
        "cemetery": "grave",
        "name": "Cregneash Cross",
        "tourism": "attraction",
        "wikimedia_commons": "File:Cregneash Cross, Isle of Man.jpg"
      }
    },
    {
      "type": "Feature",
      "id": 10887131646,
      "geometry": {
        "type": "Point",
        "coordinates": [
          -4.477046,
          54.150303
        ]
      },
      "properties": {
        "alt_name": "Bee Gees",
        "artist_name": "Andy Edwards",
        "artwork_type": "statue",
        "material": "bronze",
        "name": "The Bee Gees",
        "subject:wikidata": "Q133405",
        "subject:wikipedia": "en:Bee Gees",
        "tourism": "artwork",
        "wikidata": "Q107626024",
        "wikipedia": "en:Statue of Bee Gees (Douglas, Isle of Man)"
      }
    },
    {
      "type": "Feature",
      "id": 10891721348,
      "geometry": {
        "type": "Point",
        "coordinates": [
          -4.474407,
          54.149219
        ]
      },
      "properties": {
        "board_type": "history",
        "information": "board",
        "name": "Douglas Cable Tram Wheel",
        "tourism": "information"
      }
    },
    {
      "type": "Feature",
      "id": 10897674917,
      "geometry": {
        "type": "Point",
        "coordinates": [
          -4.46272,
          54.252642
        ]
      },
      "properties": {
        "artist_name": "Amanda Barton",
        "artwork_type": "statue",
        "material": "bronze",
        "name": "Joey Dunlop",
        "subject:wikidata": "Q1358228",
        "subject:wikipedia": "en:Joey Dunlop",
        "tourism": "artwork",
        "wikimedia_commons": "File:Statue-tt-races-snaefell.jpg"
      }
    },
    {
      "type": "Feature",
      "id": 10979302877,
      "geometry": {
        "type": "Point",
        "coordinates": [
          -4.621757,
          54.073231
        ]
      },
      "properties": {
        "artist_name": "Dave Tomlinson",
        "artwork_type": "sculpture",
        "material": "bronze",
        "name": "Derbyhaven Bay",
        "tourism": "artwork"
      }
    },
    {
      "type": "Feature",
      "id": 10992195969,
      "geometry": {
        "type": "Point",
        "coordinates": [
          -4.47695,
          54.147773
        ]
      },
      "properties": {
        "information": "map",
        "map_size": "local",
        "map_type": "street",
        "tourism": "information"
      }
    },
    {
      "type": "Feature",
      "id": 11009081313,
      "geometry": {
        "type": "Point",
        "coordinates": [
          -4.467837,
          54.143453
        ]
      },
      "properties": {
        "information": "board",
        "tourism": "information"
      }
    },
    {
      "type": "Feature",
      "id": 11009081344,
      "geometry": {
        "type": "Point",
        "coordinates": [
          -4.46892,
          54.143423
        ]
      },
      "properties": {
        "information": "board",
        "tourism": "information"
      }
    },
    {
      "type": "Feature",
      "id": 11009988558,
      "geometry": {
        "type": "Point",
        "coordinates": [
          -4.432407,
          54.218416
        ]
      },
      "properties": {
        "tourism": "viewpoint"
      }
    },
    {
      "type": "Feature",
      "id": 11012439064,
      "geometry": {
        "type": "Point",
        "coordinates": [
          -4.480558,
          54.148511
        ]
      },
      "properties": {
        "artwork_type": "statue",
        "tourism": "artwork"
      }
    },
    {
      "type": "Feature",
      "id": 11014683949,
      "geometry": {
        "type": "Point",
        "coordinates": [
          -4.488666,
          54.315578
        ]
      },
      "properties": {
        "board_type": "history",
        "information": "board",
        "name": "Sulby Starch Mill Stones",
        "source": "mapillary",
        "tourism": "information"
      }
    },
    {
      "type": "Feature",
      "id": 11015455517,
      "geometry": {
        "type": "Point",
        "coordinates": [
          -4.515035,
          54.171373
        ]
      },
      "properties": {
        "information": "map",
        "map_type": "information",
        "tourism": "information"
      }
    },
    {
      "type": "Feature",
      "id": 11016563696,
      "geometry": {
        "type": "Point",
        "coordinates": [
          -4.473777,
          54.317468
        ]
      },
      "properties": {
        "tourism": "viewpoint"
      }
    },
    {
      "type": "Feature",
      "id": 11059912727,
      "geometry": {
        "type": "Point",
        "coordinates": [
          -4.761952,
          54.092108
        ]
      },
      "properties": {
        "information": "board",
        "tourism": "information"
      }
    },
    {
      "type": "Feature",
      "id": 11065225042,
      "geometry": {
        "type": "Point",
        "coordinates": [
          -4.738442,
          54.07683
        ]
      },
      "properties": {
        "information": "board",
        "tourism": "information"
      }
    },
    {
      "type": "Feature",
      "id": 11078547873,
      "geometry": {
        "type": "Point",
        "coordinates": [
          -4.454565,
          54.174754
        ]
      },
      "properties": {
        "board_type": "history",
        "information": "board",
        "tourism": "information"
      }
    },
    {
      "type": "Feature",
      "id": 11104889311,
      "geometry": {
        "type": "Point",
        "coordinates": [
          -4.452613,
          54.166997
        ]
      },
      "properties": {
        "historic": "monument",
        "information": "route_marker",
        "name": "Raad Ny Foillan Obelisk",
        "tourism": "information"
      }
    },
    {
      "type": "Feature",
      "id": 11109516684,
      "geometry": {
        "type": "Point",
        "coordinates": [
          -4.684725,
          54.226263
        ]
      },
      "properties": {
        "historic": "monument",
        "information": "route_marker",
        "name": "Raad Ny Foillan Obelisk",
        "tourism": "information"
      }
    },
    {
      "type": "Feature",
      "id": 11109545170,
      "geometry": {
        "type": "Point",
        "coordinates": [
          -4.381113,
          54.324086
        ]
      },
      "properties": {
        "historic": "monument",
        "information": "route_marker",
        "name": "Raad Ny Foillan Obelisk",
        "tourism": "information"
      }
    },
    {
      "type": "Feature",
      "id": 11109547846,
      "geometry": {
        "type": "Point",
        "coordinates": [
          -4.759137,
          54.08824
        ]
      },
      "properties": {
        "historic": "monument",
        "information": "route_marker",
        "name": "Raad Ny Foillan Obelisk",
        "tourism": "information"
      }
    },
    {
      "type": "Feature",
      "id": 11125998681,
      "geometry": {
        "type": "Point",
        "coordinates": [
          -4.698737,
          54.214076
        ]
      },
      "properties": {
        "artwork_type": "sculpture",
        "name": "The Moddey Dhoo of Peel Castle",
        "tourism": "artwork"
      }
    },
    {
      "type": "Feature",
      "id": 11125998689,
      "geometry": {
        "type": "Point",
        "coordinates": [
          -4.650702,
          54.204117
        ]
      },
      "properties": {
        "artwork_type": "sculpture",
        "name": "The Lost Wife of Ballaleece",
        "tourism": "artwork"
      }
    },
    {
      "type": "Feature",
      "id": 11132701739,
      "geometry": {
        "type": "Point",
        "coordinates": [
          -4.48004,
          54.149893
        ]
      },
      "properties": {
        "information": "map",
        "map_size": "local",
        "map_type": "street",
        "tourism": "information"
      }
    },
    {
      "type": "Feature",
      "id": 11161441105,
      "geometry": {
        "type": "Point",
        "coordinates": [
          -4.771737,
          54.066871
        ]
      },
      "properties": {
        "information": "board",
        "name": "Spanish Head Road",
        "tourism": "information"
      }
    },
    {
      "type": "Feature",
      "id": 11162034928,
      "geometry": {
        "type": "Point",
        "coordinates": [
          -4.649125,
          54.078855
        ]
      },
      "properties": {
        "description": "Dark skies site",
        "information": "board",
        "tourism": "information"
      }
    },
    {
      "type": "Feature",
      "id": 11164580385,
      "geometry": {
        "type": "Point",
        "coordinates": [
          -4.729698,
          54.105039
        ]
      },
      "properties": {
        "tourism": "viewpoint"
      }
    },
    {
      "type": "Feature",
      "id": 11197682133,
      "geometry": {
        "type": "Point",
        "coordinates": [
          -4.773671,
          54.067459
        ]
      },
      "properties": {
        "information": "board",
        "name": "Meadows",
        "tourism": "information"
      }
    },
    {
      "type": "Feature",
      "id": 11197682134,
      "geometry": {
        "type": "Point",
        "coordinates": [
          -4.772985,
          54.067719
        ]
      },
      "properties": {
        "information": "board",
        "tourism": "information"
      }
    },
    {
      "type": "Feature",
      "id": 11197682135,
      "geometry": {
        "type": "Point",
        "coordinates": [
          -4.771133,
          54.068394
        ]
      },
      "properties": {
        "information": "board",
        "name": "The Meadow Field",
        "tourism": "information"
      }
    },
    {
      "type": "Feature",
      "id": 11197682136,
      "geometry": {
        "type": "Point",
        "coordinates": [
          -4.773918,
          54.066798
        ]
      },
      "properties": {
        "information": "board",
        "tourism": "information"
      }
    },
    {
      "type": "Feature",
      "id": 11197704437,
      "geometry": {
        "type": "Point",
        "coordinates": [
          -4.774261,
          54.067026
        ]
      },
      "properties": {
        "information": "board",
        "tourism": "information"
      }
    },
    {
      "type": "Feature",
      "id": 11197748568,
      "geometry": {
        "type": "Point",
        "coordinates": [
          -4.638329,
          54.106338
        ]
      },
      "properties": {
        "addr:city": "Ballasalla",
        "addr:housename": "Silverdale Corn Mill",
        "addr:place": "Silverdale",
        "addr:postcode": "IM9 3DS",
        "contact:facebook": "https://www.facebook.com/traillodge.im/",
        "name": "Trail Lodge",
        "tourism": "guest_house",
        "website": "https://www.traillodge.im",
        "wikidata": "Q111115959"
      }
    },
    {
      "type": "Feature",
      "id": 11229561712,
      "geometry": {
        "type": "Point",
        "coordinates": [
          -4.575737,
          54.168107
        ]
      },
      "properties": {
        "information": "guidepost",
        "name": "St Patrick's Chair",
        "tourism": "information"
      }
    },
    {
      "type": "Feature",
      "id": 11807118421,
      "geometry": {
        "type": "Point",
        "coordinates": [
          -4.62501,
          54.05502
        ]
      },
      "properties": {
        "addr:city": "Castletown",
        "addr:country": "IM",
        "addr:housename": "Langness Lighthouse",
        "addr:postcode": "IM9 1UB",
        "addr:street": "Langness",
        "name": "West Cottage",
        "tourism": "chalet",
        "website": "https://www.isle-of-man-holiday.com/accommodation/west/"
      }
    },
    {
      "type": "Feature",
      "id": 11807118422,
      "geometry": {
        "type": "Point",
        "coordinates": [
          -4.624865,
          54.055007
        ]
      },
      "properties": {
        "addr:city": "Castletown",
        "addr:country": "IM",
        "addr:housename": "Langness Lighthouse",
        "addr:postcode": "IM9 1UB",
        "addr:street": "Langness",
        "name": "East Cottage",
        "tourism": "chalet",
        "website": "https://www.isle-of-man-holiday.com/accommodation/west/"
      }
    },
    {
      "type": "Feature",
      "id": 11879076094,
      "geometry": {
        "type": "Point",
        "coordinates": [
          -4.596628,
          54.165941
        ]
      },
      "properties": {
        "addr:city": "Eairy",
        "addr:country": "IM",
        "addr:housename": "Gorselands",
        "addr:postcode": "IM4 2HO",
        "addr:street": "Foxdale Road",
        "fixme": "check whether it's the cottage or the house",
        "name": "Gorselands Holiday Cottage",
        "source": "streetside;Isle of Man Government Companies Registry",
        "tourism": "chalet"
      }
    },
    {
      "type": "Feature",
      "id": 11891204536,
      "geometry": {
        "type": "Point",
        "coordinates": [
          -4.379616,
          54.321056
        ]
      },
      "properties": {
        "amenity": "bench",
        "artist_name": "Nick Barlow",
        "artwork_type": "sculpture",
        "material": "wood",
        "name": "Longboat Bench",
        "tourism": "artwork"
      }
    },
    {
      "type": "Feature",
      "id": 11891204537,
      "geometry": {
        "type": "Point",
        "coordinates": [
          -4.379569,
          54.320989
        ]
      },
      "properties": {
        "amenity": "bench",
        "artist_name": "Nick Barlow",
        "artwork_type": "sculpture",
        "material": "wood",
        "name": "Longboat Bench",
        "tourism": "artwork"
      }
    },
    {
      "type": "Feature",
      "id": 11891204538,
      "geometry": {
        "type": "Point",
        "coordinates": [
          -4.379595,
          54.321025
        ]
      },
      "properties": {
        "artist_name": "Nick Barlow",
        "artwork_type": "sculpture",
        "material": "wood",
        "name": "Viking",
        "tourism": "artwork"
      }
    },
    {
      "type": "Feature",
      "id": 12108629870,
      "geometry": {
        "type": "Point",
        "coordinates": [
          -4.642568,
          54.20135
        ]
      },
      "properties": {
        "artwork_type": "sculpture",
        "material": "metal",
        "name": "2018 Year of Our Island",
        "tourism": "artwork"
      }
    },
    {
      "type": "Feature",
      "id": 12111433269,
      "geometry": {
        "type": "Point",
        "coordinates": [
          -4.792657,
          54.063547
        ]
      },
      "properties": {
        "board_type": "history",
        "information": "board",
        "name": "The Parade",
        "tourism": "information"
      }
    },
    {
      "type": "Feature",
      "id": 12112964329,
      "geometry": {
        "type": "Point",
        "coordinates": [
          -4.739021,
          54.072721
        ]
      },
      "properties": {
        "board_type": "notice",
        "information": "board",
        "tourism": "information"
      }
    },
    {
      "type": "Feature",
      "id": 12113252314,
      "geometry": {
        "type": "Point",
        "coordinates": [
          -4.73492,
          54.069369
        ]
      },
      "properties": {
        "information": "guidepost",
        "tourism": "information"
      }
    },
    {
      "type": "Feature",
      "id": 12115263335,
      "geometry": {
        "type": "Point",
        "coordinates": [
          -4.757297,
          54.079197
        ]
      },
      "properties": {
        "tourism": "viewpoint"
      }
    },
    {
      "type": "Feature",
      "id": 12118902523,
      "geometry": {
        "type": "Point",
        "coordinates": [
          -4.65231,
          54.072769
        ]
      },
      "properties": {
        "description": "Millennium Way Start/End",
        "information": "guidepost",
        "material": "wood",
        "source": "survey",
        "tourism": "information"
      }
    },